title,address,lat,lng,type,place_id_search
Tesla Destination Charger,"6120 Lake Worth Rd, Greenacres, FL 33037",26.618593999999998,-80.13965069999999,Electric vehicle charging station,https://serpapi.com/search.json?data=%214m5%213m4%211s0x88d927b5875c7a47%3A0xde53f34ce14b93a%218m2%213d26.618593999999998%214d-80.13965069999999&engine=google_maps&google_domain=google.com&hl=en&type=place
Tesla Destination Charger,"1000 James L Turnage Blvd, West Palm Beach, FL 33415",26.688488,-80.090259,Electric vehicle charging station,https://serpapi.com/search.json?data=%214m5%213m4%211s0x88d8d62c51343a25%3A0x8bcffb6f3e88f11a%218m2%213d26.688488%214d-80.090259&engine=google_maps&google_domain=google.com&hl=en&type=place
Tesla Destination Charger,"1410 Georgia Ave, West Palm Beach, FL 33401",26.700225,-80.05789,Electric vehicle charging station,https://serpapi.com/search.json?data=%214m5%213m4%211s0x88d8d6594ba9b5a5%3A0x5a80a111fdc3c5c%218m2%213d26.700225%214d-80.05789&engine=google_maps&google_domain=google.com&hl=en&type=place
Tesla Destination Charger,"500 Banyan Blvd, West Palm Beach, FL 33401",26.71417,-80.05557,Electric vehicle charging station,https://serpapi.com/search.json?data=%214m5%213m4%211s0x88d8d6625aa6b351%3A0x21b840418efceb4b%218m2%213d26.71417%214d-80.05557&engine=google_maps&google_domain=google.com&hl=en&type=place
Tesla Destination Charger,"400 Ave of the Champions, Palm Beach Gardens, FL 33418",26.828990899999997,-80.141201,Electric vehicle charging station,https://serpapi.com/search.json?data=%214m5%213m4%211s0x88ded52acb955555%3A0x23124c6e263f1571%218m2%213d26.828990899999997%214d-80.141201&engine=google_maps&google_domain=google.com&hl=en&type=place
Tesla Destination Charger,"700 S Rosemary Ave, West Palm Beach, FL 33401",26.707556,-80.0566937,Electric vehicle charging station,https://serpapi.com/search.json?data=%214m5%213m4%211s0x88d8d6608cd403fb%3A0x7c93c0c833c0b9af%218m2%213d26.707556%214d-80.0566937&engine=google_maps&google_domain=google.com&hl=en&type=place
Tesla Destination Charger,"600 Okeechobee Blvd, West Palm Beach, FL 33401",26.704929,-80.0570259,Electric vehicle charging station,https://serpapi.com/search.json?data=%214m5%213m4%211s0x88d8d65e39d20ffd%3A0x92b9038b8ba87e70%218m2%213d26.704929%214d-80.0570259&engine=google_maps&google_domain=google.com&hl=en&type=place
Tesla Destination Charger,"295 Lakeview Ave, West Palm Beach, FL 33401",26.706408999999997,-80.051881,Electric vehicle charging station,https://serpapi.com/search.json?data=%214m5%213m4%211s0x88d8d68ac8fac733%3A0x8677ba72c00ce0d7%218m2%213d26.706408999999997%214d-80.051881&engine=google_maps&google_domain=google.com&hl=en&type=place
Tesla Destination Charger,"125 N Dixie Hwy, West Palm Beach, FL 33401",26.714202,-80.0537669,Electric vehicle charging station,https://serpapi.com/search.json?data=%214m5%213m4%211s0x88d8d662797278e1%3A0x1c30ee71ed0228cd%218m2%213d26.714202%214d-80.0537669&engine=google_maps&google_domain=google.com&hl=en&type=place
Tesla Destination Charger,"1 S County Rd, Palm Beach, FL 33480",26.715652,-80.03503549999999,Electric vehicle charging station,https://serpapi.com/search.json?data=%214m5%213m4%211s0x88d8d697690e74a3%3A0x3255d4aab4af3842%218m2%213d26.715652%214d-80.03503549999999&engine=google_maps&google_domain=google.com&hl=en&type=place
Tesla Destination Charger,"3505 Kyoto Gardens Dr, Palm Beach Gardens, FL 33410",26.8482921,-80.0910305,Electric vehicle charging station,https://serpapi.com/search.json?data=%214m5%213m4%211s0x88df2aa274fec129%3A0x3120ac48513d97d9%218m2%213d26.8482921%214d-80.0910305&engine=google_maps&google_domain=google.com&hl=en&type=place
Tesla Destination Charger,"11360 US-1, Palm Beach Gardens, FL 33408",26.8415938,-80.0615668,Electric vehicle charging station,https://serpapi.com/search.json?data=%214m5%213m4%211s0x88df2adc6404399b%3A0xb5a3dabd2a166226%218m2%213d26.8415938%214d-80.0615668&engine=google_maps&google_domain=google.com&hl=en&type=place
Tesla Destination Charger,"100 S Ocean Blvd, Manalapan, FL 33462",26.583011,-80.03839099999999,Electric vehicle charging station,https://serpapi.com/search.json?data=%214m5%213m4%211s0x88d8d9093740476b%3A0xe90e7c5e6053ba08%218m2%213d26.583011%214d-80.03839099999999&engine=google_maps&google_domain=google.com&hl=en&type=place
Tesla Destination Charger,"74434321130020030, West Palm Beach, FL 33401",26.707051699999997,-80.0560728,Electric vehicle charging station,https://serpapi.com/search.json?data=%214m5%213m4%211s0x88d8d7675646a82b%3A0x6bbec7b6fc3013f%218m2%213d26.707051699999997%214d-80.0560728&engine=google_maps&google_domain=google.com&hl=en&type=place
Tesla Destination Charger,"13801 US-1, Juno Beach, FL 33408",26.878330199999997,-80.0558827,Electric vehicle charging station,https://serpapi.com/search.json?data=%214m5%213m4%211s0x88df2a52f8fe2b65%3A0xcf5cffdf15853d79%218m2%213d26.878330199999997%214d-80.0558827&engine=google_maps&google_domain=google.com&hl=en&type=place
SemaConnect Charging Station,"12300 Forest Hill Blvd, Wellington, FL 33414",26.6551404,-80.2379126,Electric vehicle charging station,https://serpapi.com/search.json?data=%214m5%213m4%211s0x88d92f8406f97b05%3A0xb685336af43396e4%218m2%213d26.6551404%214d-80.2379126&engine=google_maps&google_domain=google.com&hl=en&type=place
Tesla Destination Charger,"104 NE 2nd Ave, Delray Beach, FL 33444",26.463914199999998,-80.0714776,Electric vehicle charging station,https://serpapi.com/search.json?data=%214m5%213m4%211s0x88d8dfc36b81e1e7%3A0x108ce6277ba4bd33%218m2%213d26.463914199999998%214d-80.0714776&engine=google_maps&google_domain=google.com&hl=en&type=place
Tesla Destination Charger,"1000 E Atlantic Ave, Delray Beach, FL 33483",26.461198,-80.06123199999999,Electric vehicle charging station,https://serpapi.com/search.json?data=%214m5%213m4%211s0x88d8dfd1d776f8bb%3A0x52151b7ab74c06f1%218m2%213d26.461198%214d-80.06123199999999&engine=google_maps&google_domain=google.com&hl=en&type=place
ChargePoint Charging Station,"1501 Presidential Way, West Palm Beach, FL 33401",26.7261702,-80.0864081,Electric vehicle charging station,https://serpapi.com/search.json?data=%214m5%213m4%211s0x88d8d608e8f25b73%3A0x2bd7271306ba2a4c%218m2%213d26.7261702%214d-80.0864081&engine=google_maps&google_domain=google.com&hl=en&type=place
Tesla Destination Charger,"2801 N Federal Hwy, Boca Raton, FL 33431",26.3757918,-80.0770077,Electric vehicle charging station,https://serpapi.com/search.json?data=%214m5%213m4%211s0x88d8e1eb46922a73%3A0xc9a9b896be00f6ed%218m2%213d26.3757918%214d-80.0770077&engine=google_maps&google_domain=google.com&hl=en&type=place
Tesla Destination Charger,"181, 181, 5612 Hüttschlag, Austria",47.1828357,13.2226571,Electric vehicle charging station,https://serpapi.com/search.json?data=%214m5%213m4%211s0x47772e6fa82a3259%3A0xadcb60015a15b1e9%218m2%213d47.1828357%214d13.2226571&engine=google_maps&google_domain=google.com&hl=en&type=place
Tesla Destination Charger,"Salzburger Str. 24, 5630 Bad Hofgastein, Austria",47.174405,13.104755899999999,Electric vehicle charging station,https://serpapi.com/search.json?data=%214m5%213m4%211s0x47772549f2a2d377%3A0xa62d9bd5db014868%218m2%213d47.174405%214d13.104755899999999&engine=google_maps&google_domain=google.com&hl=en&type=place
Tesla Destination Charger,"Unterberg 83, 5611 Großarl, Austria",47.243125,13.195725999999999,Electric vehicle charging station,https://serpapi.com/search.json?data=%214m5%213m4%211s0x477728cea57b90d7%3A0xd57990a957757a9c%218m2%213d47.243125%214d13.195725999999999&engine=google_maps&google_domain=google.com&hl=en&type=place
Tesla Destination Charger,"Pyrkerstraße 32, 5630 Bad Hofgastein, Austria",47.168054999999995,13.110655,Electric vehicle charging station,https://serpapi.com/search.json?data=%214m5%213m4%211s0x47773ab2d30daa23%3A0xe063cde01b124253%218m2%213d47.168054999999995%214d13.110655&engine=google_maps&google_domain=google.com&hl=en&type=place
Tesla Destination Charger,"Unterberg 50, 5611 Großarl, Austria",47.245218,13.195829999999999,Electric vehicle charging station,https://serpapi.com/search.json?data=%214m5%213m4%211s0x477728c8d532107d%3A0x5bf314a8da60afad%218m2%213d47.245218%214d13.195829999999999&engine=google_maps&google_domain=google.com&hl=en&type=place
Tesla Destination Charger,"Ebnerweg 6, 5602 Kleinarl, Austria",47.276019999999995,13.3224509,Electric vehicle charging station,https://serpapi.com/search.json?data=%214m5%213m4%211s0x47772a44c8f0c3c7%3A0x59a5407910bf4222%218m2%213d47.276019999999995%214d13.3224509&engine=google_maps&google_domain=google.com&hl=en&type=place
Tesla Destination Charger,"Bergbahnstr. 25, 5630 Dorfgastein, Austria",47.242382,13.109452,Electric vehicle charging station,https://serpapi.com/search.json?data=%214m5%213m4%211s0x477725d35a16824f%3A0x60ba0d08375eaf83%218m2%213d47.242382%214d13.109452&engine=google_maps&google_domain=google.com&hl=en&type=place
Tesla Destination Charger,"Knoblachergasse 4, 5630 Bad Hofgastein, Austria",47.172605499999996,13.104194099999999,Electric vehicle charging station,https://serpapi.com/search.json?data=%214m5%213m4%211s0x4777254a401998af%3A0x87f71b7a18543585%218m2%213d47.172605499999996%214d13.104194099999999&engine=google_maps&google_domain=google.com&hl=en&type=place
Tesla Destination Charger,"Dorfpl. 1, 5640 Bad Gastein, Austria",47.1269175,13.1414631,Electric vehicle charging station,https://serpapi.com/search.json?data=%214m5%213m4%211s0x47773058db027c33%3A0x88e1a40aad33ba3d%218m2%213d47.1269175%214d13.1414631&engine=google_maps&google_domain=google.com&hl=en&type=place
Tesla Destination Charger,"Kaiser-Franz-Platz 3, 5630 Bad Hofgastein, Austria",47.171186999999996,13.105917999999999,Electric vehicle charging station,https://serpapi.com/search.json?data=%214m5%213m4%211s0x4777254b0818babf%3A0xea3fa86a2c1698b6%218m2%213d47.171186999999996%214d13.105917999999999&engine=google_maps&google_domain=google.com&hl=en&type=place
Tesla Destination Charger,"Parkstraße 13, 5630 Bad Hofgastein, Austria",47.172509,13.1003159,Electric vehicle charging station,https://serpapi.com/search.json?data=%214m5%213m4%211s0x47772535bcb0540b%3A0x3d2de68ca1b12a0%218m2%213d47.172509%214d13.1003159&engine=google_maps&google_domain=google.com&hl=en&type=place
Tesla Destination Charger,"Scheiblingstraße 4, 5640 Bad Gastein, Austria",47.131184999999995,13.136789,Electric vehicle charging station,https://serpapi.com/search.json?data=%214m5%213m4%211s0x4777305def064779%3A0x978b79189eda6ce9%218m2%213d47.131184999999995%214d13.136789&engine=google_maps&google_domain=google.com&hl=en&type=place
Tesla Destination Charger,"Marktstraße 6, 5661 Rauris, Austria",47.232552399999996,12.9932023,Electric vehicle charging station,https://serpapi.com/search.json?data=%214m5%213m4%211s0x4777224dc00b9d9d%3A0xd2e762e8f9e11f5f%218m2%213d47.232552399999996%214d12.9932023&engine=google_maps&google_domain=google.com&hl=en&type=place
Tesla Destination Charger,"Alpendorf 8, 5600 St. Johann im Pongau, Austria",47.321405999999996,13.195096999999999,Electric vehicle charging station,https://serpapi.com/search.json?data=%214m5%213m4%211s0x4776d8017644eb11%3A0xd2666f273d3e9812%218m2%213d47.321405999999996%214d13.195096999999999&engine=google_maps&google_domain=google.com&hl=en&type=place
Tesla Destination Charger,"Kirchboden 16, 5602 Salzburg, Austria",47.332617899999995,13.301255,Electric vehicle charging station,https://serpapi.com/search.json?data=%214m5%213m4%211s0x4776d670e451ff99%3A0xd19c287a78f8f36c%218m2%213d47.332617899999995%214d13.301255&engine=google_maps&google_domain=google.com&hl=en&type=place
Tesla Destination Charger,"Widmoosweg 3, 5602 Wagrain, Austria",47.334342199999995,13.3085027,Electric vehicle charging station,https://serpapi.com/search.json?data=%214m5%213m4%211s0x4776d67829234ca7%3A0x7d58817602cc3938%218m2%213d47.334342199999995%214d13.3085027&engine=google_maps&google_domain=google.com&hl=en&type=place
Tesla Destination Charger,"Zauchensee, 5541 Zauchensee, Austria",47.293005,13.458143999999999,Electric vehicle charging station,https://serpapi.com/search.json?data=%214m5%213m4%211s0x47712a7b8f68135d%3A0xd5e2a577d4fc93c8%218m2%213d47.293005%214d13.458143999999999&engine=google_maps&google_domain=google.com&hl=en&type=place
Tesla Destination Charger,"Hauptstraße 78, 5600 St. Johann im Pongau, Austria",47.34654,13.196214,Electric vehicle charging station,https://serpapi.com/search.json?data=%214m5%213m4%211s0x4776d83aa59bec5b%3A0xae357bbcd93a276e%218m2%213d47.34654%214d13.196214&engine=google_maps&google_domain=google.com&hl=en&type=place
Tesla Destination Charger,"Untere Wechslerg. 173, 5542 Flachau, Austria",47.346961,13.394687,Electric vehicle charging station,https://serpapi.com/search.json?data=%214m5%213m4%211s0x4776d4e9bc0bbedf%3A0x6d1c80efeffc7cc7%218m2%213d47.346961%214d13.394687&engine=google_maps&google_domain=google.com&hl=en&type=place
Tesla Destination Charger,"Sonnberg 23, 5652 Dienten am Hochkönig, Austria",47.3888696,13.0279761,Electric vehicle charging station,https://serpapi.com/search.json?data=%214m5%213m4%211s0x4776de25a91a9c19%3A0xb6287d263a0d32c3%218m2%213d47.3888696%214d13.0279761&engine=google_maps&google_domain=google.com&hl=en&type=place
Tesla Destination Charger,"Rue de la Croix Monet 2, 5310 Liernu, Belgium",50.592933699999996,4.8329588,Electric vehicle charging station,https://serpapi.com/search.json?data=%214m5%213m4%211s0x47c1763bbb55dc67%3A0x26c8c73fbf65ae40%218m2%213d50.592933699999996%214d4.8329588&engine=google_maps&google_domain=google.com&hl=en&type=place
Tesla Destination Charger,"Ruelle Foriaux 2, 1490 Court-St.-Étienne, Belgium",50.612707699999994,4.5403752,Electric vehicle charging station,https://serpapi.com/search.json?data=%214m5%213m4%211s0x47c3d515ef63706d%3A0x839ac71168692a16%218m2%213d50.612707699999994%214d4.5403752&engine=google_maps&google_domain=google.com&hl=en&type=place
Tesla Destination Charger,"Avenue du Lac 87, 1332 Genval, Belgium",50.7290821,4.5136034,Electric vehicle charging station,https://serpapi.com/search.json?data=%214m5%213m4%211s0x47c3d73d6e8e21cf%3A0xab337a4f85734ba%218m2%213d50.7290821%214d4.5136034&engine=google_maps&google_domain=google.com&hl=en&type=place
Tesla Destination Charger,"Rue Emile François 31, 1474 Genappe, Belgium",50.633683999999995,4.477215999999999,Electric vehicle charging station,https://serpapi.com/search.json?data=%214m5%213m4%211s0x47c3d4805dea15fd%3A0x9bddb56dde8be9d0%218m2%213d50.633683999999995%214d4.477215999999999&engine=google_maps&google_domain=google.com&hl=en&type=place
Tesla Supercharger,"Rue de la Wastinne 45, 1301 Wavre, Belgium",50.708065399999995,4.598277899999999,Electric vehicle charging station,https://serpapi.com/search.json?data=%214m5%213m4%211s0x47c17d6916ababab%3A0x43efd4bda793c71f%218m2%213d50.708065399999995%214d4.598277899999999&engine=google_maps&google_domain=google.com&hl=en&type=place
Tesla Destination Charger,"Chaussée de Bruxelles 35, 1410 Waterloo, Belgium",50.7300816,4.398532299999999,Electric vehicle charging station,https://serpapi.com/search.json?data=%214m5%213m4%211s0x47c3d02f120873d9%3A0x4b019d491627e5c2%218m2%213d50.7300816%214d4.398532299999999&engine=google_maps&google_domain=google.com&hl=en&type=place
EV-Box Charging Station,"Avenue Marcel Pagnol 4, 1300 Wavre, Belgium",50.7056804,4.6323016,Electric vehicle charging station,https://serpapi.com/search.json?data=%214m5%213m4%211s0x47c17dac6782e809%3A0x6e7fb12a32bfd1fb%218m2%213d50.7056804%214d4.6323016&engine=google_maps&google_domain=google.com&hl=en&type=place
EV-Box Charging Station,"8840/Z, Zoning Industriel de Perwez, 1360 Perwez, Belgium",50.627207999999996,4.798126,Electric vehicle charging station,https://serpapi.com/search.json?data=%214m5%213m4%211s0x47c1770b54b2b23b%3A0x303820a2166a555e%218m2%213d50.627207999999996%214d4.798126&engine=google_maps&google_domain=google.com&hl=en&type=place
NewMotion Charging Station,"Avenue des Cossettes 2, 5030 Gembloux, Belgium",50.568883,4.6964671,Electric vehicle charging station,https://serpapi.com/search.json?data=%214m5%213m4%211s0x47c1826931349df7%3A0x6da20af940e1595c%218m2%213d50.568883%214d4.6964671&engine=google_maps&google_domain=google.com&hl=en&type=place
Allego Charging Station,"Rue de Spy, 5190 Jemeppe-sur-Sambre, Belgium",50.4957,4.701099999999999,Electric vehicle charging station,https://serpapi.com/search.json?data=%214m5%213m4%211s0x47c18487586fb5b1%3A0x791fcc86f89b15bf%218m2%213d50.4957%214d4.701099999999999&engine=google_maps&google_domain=google.com&hl=en&type=place
ev-box Charging Station,"Chaussée de Tirlemont 90, 5030 Gembloux, Belgium",50.5813622,4.708424,Electric vehicle charging station,https://serpapi.com/search.json?data=%214m5%213m4%211s0x47c182792d927b13%3A0xd34cb5b0639b9926%218m2%213d50.5813622%214d4.708424&engine=google_maps&google_domain=google.com&hl=en&type=place
Tesla Destination Charger,"Rue Charles Lindbergh 26, 6041 Charleroi, Belgium",50.4722462,4.4741097,Electric vehicle charging station,https://serpapi.com/search.json?data=%214m5%213m4%211s0x47c2291f6448a4f9%3A0x91b21d7080e335e4%218m2%213d50.4722462%214d4.4741097&engine=google_maps&google_domain=google.com&hl=en&type=place
Tesla Destination Charger,"Rue des Tanneries 13, 5000 Namur, Belgium",50.463976599999995,4.8713881,Electric vehicle charging station,https://serpapi.com/search.json?data=%214m5%213m4%211s0x47c19912a6a182b5%3A0x2c6b7bc7d3dc208d%218m2%213d50.463976599999995%214d4.8713881&engine=google_maps&google_domain=google.com&hl=en&type=place
ev-box Charging Station,"Rue du Rivage 4, 5030 Gembloux, Belgium",50.55478,4.6848765,Electric vehicle charging station,https://serpapi.com/search.json?data=%214m5%213m4%211s0x47c182381a69bcc7%3A0x2518ac8283a6ce22%218m2%213d50.55478%214d4.6848765&engine=google_maps&google_domain=google.com&hl=en&type=place
Tesla Destination Charger,"Dr. J. Geensstraat 32/34, 3300 Tienen, Belgium",50.8074291,4.9336218,Electric vehicle charging station,https://serpapi.com/search.json?data=%214m5%213m4%211s0x47c16c6ba414d50b%3A0xff77f408de09520e%218m2%213d50.8074291%214d4.9336218&engine=google_maps&google_domain=google.com&hl=en&type=place
Tesla Destination Charger,"Chaussée de Courcelles 115, 6044 Charleroi, Belgium",50.4646778,4.4179039,Electric vehicle charging station,https://serpapi.com/search.json?data=%214m5%213m4%211s0x47c22f194567c4a3%3A0x7b1d457ee7307635%218m2%213d50.4646778%214d4.4179039&engine=google_maps&google_domain=google.com&hl=en&type=place
EV-Box Charging Station,"Avenue du Vallon 85, 1380 Lasne, Belgium",50.717459999999996,4.477679999999999,Electric vehicle charging station,https://serpapi.com/search.json?data=%214m5%213m4%211s0x47c3d1283aef72c1%3A0x8af566529f11fe81%218m2%213d50.717459999999996%214d4.477679999999999&engine=google_maps&google_domain=google.com&hl=en&type=place
ev-box Charging Station,"Avenue Zénobe Gramme 40, 1300 Wavre, Belgium",50.733726999999995,4.581608,Electric vehicle charging station,https://serpapi.com/search.json?data=%214m5%213m4%211s0x47c3d7dd9f52d8b3%3A0xa766453f7dd4da95%218m2%213d50.733726999999995%214d4.581608&engine=google_maps&google_domain=google.com&hl=en&type=place
EV-Box Charging Station,"Rue de Spêche 30, 1457 Walhain, Belgium",50.646393499999995,4.687435,Electric vehicle charging station,https://serpapi.com/search.json?data=%214m5%213m4%211s0x47c17937eb10f12b%3A0x88352d2d9ac07489%218m2%213d50.646393499999995%214d4.687435&engine=google_maps&google_domain=google.com&hl=en&type=place
Tesla Destination Charger,"Chaussée de Charleroi 100/106, 1060 Saint-Gilles, Belgium",50.828299,4.355694,Electric vehicle charging station,https://serpapi.com/search.json?data=%214m5%213m4%211s0x47c3c48a9f8fbdfb%3A0x5481a970d4f0e204%218m2%213d50.828299%214d4.355694&engine=google_maps&google_domain=google.com&hl=en&type=place
Tesla Destination Charger,"9061 N 700 W, Indianapolis, IN 46236",39.916263,-85.933506,Electric vehicle charging station,https://serpapi.com/search.json?data=%214m5%213m4%211s0x8814b5568dd3cddf%3A0x84f9a8b3cfcb4439%218m2%213d39.916263%214d-85.933506&engine=google_maps&google_domain=google.com&hl=en&type=place
Tesla Destination Charger,"31 S Meridian St, Indianapolis, IN 46204",39.766098199999995,-86.1575099,Electric vehicle charging station,https://serpapi.com/search.json?data=%214m5%213m4%211s0x886b50bcffcef5df%3A0x60c5eeca5e068ebf%218m2%213d39.766098199999995%214d-86.1575099&engine=google_maps&google_domain=google.com&hl=en&type=place
Tesla Destination Charger,"3645 E 96th St, Indianapolis, IN 46240",39.926393999999995,-86.104134,Electric vehicle charging station,https://serpapi.com/search.json?data=%214m5%213m4%211s0x8814ad4555b39135%3A0x64e174fa976f7c62%218m2%213d39.926393999999995%214d-86.104134&engine=google_maps&google_domain=google.com&hl=en&type=place
Tesla Destination Charger,"327 N Illinois St, Indianapolis, IN 46204",39.772283,-86.159201,Electric vehicle charging station,https://serpapi.com/search.json?data=%214m5%213m4%211s0x886b50bf3a6aa395%3A0xdee6eb40015efd8d%218m2%213d39.772283%214d-86.159201&engine=google_maps&google_domain=google.com&hl=en&type=place
Tesla Destination Charger,"301 S Meridian St, Indianapolis, IN 46225",39.762422,-86.157674,Electric vehicle charging station,https://serpapi.com/search.json?data=%214m5%213m4%211s0x886b50a321f48b4b%3A0x5adc5276c30b28a5%218m2%213d39.762422%214d-86.157674&engine=google_maps&google_domain=google.com&hl=en&type=place
Tesla Destination Charger,"321 Barrett Dr, Greenfield, IN 46140",39.818939,-85.767039,Electric vehicle charging station,https://serpapi.com/search.json?data=%214m5%213m4%211s0x886b31fe2f396197%3A0x14e76399c0f31ec5%218m2%213d39.818939%214d-85.767039&engine=google_maps&google_domain=google.com&hl=en&type=place
Tesla Destination Charger,"4050 Dandy Trail, Indianapolis, IN 46254",39.8279244,-86.30078619999999,Electric vehicle charging station,https://serpapi.com/search.json?data=%214m5%213m4%211s0x886ca97721efb6d7%3A0xc7816fd9b0f67d9%218m2%213d39.8279244%214d-86.30078619999999&engine=google_maps&google_domain=google.com&hl=en&type=place
Tesla Destination Charger,"7800 Col. H. Weir Cook Memorial Dr, Indianapolis, IN 46241",39.715041,-86.298147,Electric vehicle charging station,https://serpapi.com/search.json?data=%214m5%213m4%211s0x886ca6ffc6c1933d%3A0xc65e467765c5bbdc%218m2%213d39.715041%214d-86.298147&engine=google_maps&google_domain=google.com&hl=en&type=place
Tesla Supercharger,"5120 Victory Dr, Indianapolis, IN 46203",39.7023334,-86.0795706,Electric vehicle charging station,https://serpapi.com/search.json?data=%214m5%213m4%211s0x886b5b078e46bd01%3A0x4504ac274b9047c9%218m2%213d39.7023334%214d-86.0795706&engine=google_maps&google_domain=google.com&hl=en&type=place
Tesla Destination Charger,"4500 Dan Patch Cir, Anderson, IN 46013",40.0684416,-85.6416072,Electric vehicle charging station,https://serpapi.com/search.json?data=%214m5%213m4%211s0x8814d82b79da39d7%3A0x2369690c7727fa76%218m2%213d40.0684416%214d-85.6416072&engine=google_maps&google_domain=google.com&hl=en&type=place
ChargePoint Charging Station,"9230 E 141st St, Noblesville, IN 46060",39.9949376,-86.00510179999999,Electric vehicle charging station,https://serpapi.com/search.json?data=%214m5%213m4%211s0x8814b6a9d75ad27d%3A0xf6221720603eaf72%218m2%213d39.9949376%214d-86.00510179999999&engine=google_maps&google_domain=google.com&hl=en&type=place
ChargePoint Charging Station,"305 W Washington St, Indianapolis, IN 46204",39.7669339,-86.1636187,Electric vehicle charging station,https://serpapi.com/search.json?data=%214m5%213m4%211s0x886b50ba5d1045f3%3A0xca5cee716b0bd747%218m2%213d39.7669339%214d-86.1636187&engine=google_maps&google_domain=google.com&hl=en&type=place
EVgo Charging Station,"8702 Keystone Crossing, Indianapolis, IN 46240",39.914231,-86.107061,Electric vehicle charging station,https://serpapi.com/search.json?data=%214m5%213m4%211s0x886b52b31abd2eab%3A0xf1fe007678b71056%218m2%213d39.914231%214d-86.107061&engine=google_maps&google_domain=google.com&hl=en&type=place
ChargePoint Charging Station,"11610 N College Ave, Carmel, IN 46032",39.9576953,-86.14621389999999,Electric vehicle charging station,https://serpapi.com/search.json?data=%214m5%213m4%211s0x8814acf7c367175f%3A0xd13c9b38466a0051%218m2%213d39.9576953%214d-86.14621389999999&engine=google_maps&google_domain=google.com&hl=en&type=place
ChargePoint Charging Station,"8702 Keystone Crossing, Indianapolis, IN 46240",39.9151453,-86.109982,Electric vehicle charging station,https://serpapi.com/search.json?data=%214m5%213m4%211s0x886b52b4bea195eb%3A0x7d14e93f84196406%218m2%213d39.9151453%214d-86.109982&engine=google_maps&google_domain=google.com&hl=en&type=place
Electric Vehicle Charging Station,"49 W Maryland St, Indianapolis, IN 46204",39.766304,-86.159322,Electric vehicle charging station,https://serpapi.com/search.json?data=%214m5%213m4%211s0x886b50bc7d454c59%3A0xab5a245e11a043c8%218m2%213d39.766304%214d-86.159322&engine=google_maps&google_domain=google.com&hl=en&type=place
EVgo Charging Station,"13901 Town Center Blvd, Noblesville, IN 46060",39.992838,-85.929031,Electric vehicle charging station,https://serpapi.com/search.json?data=%214m5%213m4%211s0x8814c9ff9301117d%3A0x91dae6694683ecf5%218m2%213d39.992838%214d-85.929031&engine=google_maps&google_domain=google.com&hl=en&type=place
Blink Charging Station,"11400 IKEA Way, Fishers, IN 46037",39.9533389,-86.0071281,Electric vehicle charging station,https://serpapi.com/search.json?data=%214m5%213m4%211s0x8814b4874b89b75d%3A0x90b21b0e3fc951bd%218m2%213d39.9533389%214d-86.0071281&engine=google_maps&google_domain=google.com&hl=en&type=place
ChargePoint Charging Station,"Unnamed Road, Greenwood, IN 46142",39.632714799999995,-86.12256239999999,Electric vehicle charging station,https://serpapi.com/search.json?data=%214m5%213m4%211s0x886b5ce36c3174ed%3A0x9c2cb57ac58888e6%218m2%213d39.632714799999995%214d-86.12256239999999&engine=google_maps&google_domain=google.com&hl=en&type=place
Tesla Supercharger,"9 Municipal Dr, Fishers, IN 46038",39.9577264,-86.01623579999999,Electric vehicle charging station,https://serpapi.com/search.json?data=%214m5%213m4%211s0x8814b3816a34cd43%3A0x4f9ced1bdbd1f163%218m2%213d39.9577264%214d-86.01623579999999&engine=google_maps&google_domain=google.com&hl=en&type=place
Tesla Destination Charger,"7625 Katy Fwy, Houston, TX 77024",29.783414299999997,-95.46686489999999,Electric vehicle charging station,https://serpapi.com/search.json?data=%214m5%213m4%211s0x8640c6bb2a4208e9%3A0xec7f2091d6cd8e73%218m2%213d29.783414299999997%214d-95.46686489999999&engine=google_maps&google_domain=google.com&hl=en&type=place
Tesla Destination Charger,"9450 Katy Fwy, Houston, TX 77007",29.78641,-95.526882,Electric vehicle charging station,https://serpapi.com/search.json?data=%214m5%213m4%211s0x8640c48c5838d78b%3A0x58db834070fc371a%218m2%213d29.78641%214d-95.526882&engine=google_maps&google_domain=google.com&hl=en&type=place
Tesla Destination Charger,"2525 W Loop S, Houston, TX 77027",29.7414298,-95.4564193,Electric vehicle charging station,https://serpapi.com/search.json?data=%214m5%213m4%211s0x8640c16b4b6d7fe5%3A0x4ef6d7bd653e4cab%218m2%213d29.7414298%214d-95.4564193&engine=google_maps&google_domain=google.com&hl=en&type=place
Tesla Destination Charger,"800 Sorella Ct, Houston, TX 77024",29.780890099999997,-95.5617134,Electric vehicle charging station,https://serpapi.com/search.json?data=%214m5%213m4%211s0x8640c4b32cc3d4ad%3A0x9533f5e1a3679e25%218m2%213d29.780890099999997%214d-95.5617134&engine=google_maps&google_domain=google.com&hl=en&type=place
Tesla Destination Charger,"825 Town & Country Ln, Houston, TX 77024",29.78184,-95.5595515,Electric vehicle charging station,https://serpapi.com/search.json?data=%214m5%213m4%211s0x8640c4b37b974063%3A0xbc031eed989812e7%218m2%213d29.78184%214d-95.5595515&engine=google_maps&google_domain=google.com&hl=en&type=place
Tesla Destination Charger,"8155 North Sam Houston Pkwy W, Houston, TX 77064",29.928123,-95.54594089999999,Electric vehicle charging station,https://serpapi.com/search.json?data=%214m5%213m4%211s0x8640ce15e20f4169%3A0xb778d0288fdf8451%218m2%213d29.928123%214d-95.54594089999999&engine=google_maps&google_domain=google.com&hl=en&type=place
Tesla Destination Charger,"8383 Farm to Market 1960 Rd W, Houston, TX 77070",29.957064,-95.550736,Electric vehicle charging station,https://serpapi.com/search.json?data=%214m5%213m4%211s0x8640cde4b62d32a5%3A0x9eba15a4850c0c48%218m2%213d29.957064%214d-95.550736&engine=google_maps&google_domain=google.com&hl=en&type=place
Tesla Destination Charger,"2222 W Loop S, Houston, TX 77027",29.744142099999998,-95.4592224,Electric vehicle charging station,https://serpapi.com/search.json?data=%214m5%213m4%211s0x8640c16aedff8bab%3A0x5307a257f108253b%218m2%213d29.744142099999998%214d-95.4592224&engine=google_maps&google_domain=google.com&hl=en&type=place
Tesla Destination Charger,"1919 Briar Oaks Ln, Houston, TX 77027",29.7470927,-95.45071759999999,Electric vehicle charging station,https://serpapi.com/search.json?data=%214m5%213m4%211s0x8640c13df1d42bbb%3A0x1ecd36f0bced9a7a%218m2%213d29.7470927%214d-95.45071759999999&engine=google_maps&google_domain=google.com&hl=en&type=place
Tesla Destination Charger,"307 Fairview St, Houston, TX 77006",29.7480938,-95.3862563,Electric vehicle charging station,https://serpapi.com/search.json?data=%214m5%213m4%211s0x8640bf679d91e173%3A0xf2c2ea04a2a57265%218m2%213d29.7480938%214d-95.3862563&engine=google_maps&google_domain=google.com&hl=en&type=place
Tesla Destination Charger,"806 Main St, Houston, TX 77002",29.758401,-95.3642,Electric vehicle charging station,https://serpapi.com/search.json?data=%214m5%213m4%211s0x8640bf3b1dd4c513%3A0xed61ccfbf479c3bf%218m2%213d29.758401%214d-95.3642&engine=google_maps&google_domain=google.com&hl=en&type=place
Tesla Destination Charger,"2626 Sage Rd, Houston, TX 77056",29.738160999999998,-95.46724599999999,Electric vehicle charging station,https://serpapi.com/search.json?data=%214m5%213m4%211s0x8640c16f61f0e099%3A0x869bc2b2ef1ff816%218m2%213d29.738160999999998%214d-95.46724599999999&engine=google_maps&google_domain=google.com&hl=en&type=place
Tesla Destination Charger,"1200 Louisiana St, Houston, TX 77002",29.7566588,-95.3692385,Electric vehicle charging station,https://serpapi.com/search.json?data=%214m5%213m4%211s0x8640bf3916f16f05%3A0x95dc622c5f7cc3db%218m2%213d29.7566588%214d-95.3692385&engine=google_maps&google_domain=google.com&hl=en&type=place
Tesla Destination Charger,"915 W Dallas St, Houston, TX 77019",29.757376999999998,-95.37738399999999,Electric vehicle charging station,https://serpapi.com/search.json?data=%214m5%213m4%211s0x8640bf468e3afbbd%3A0xf02b407d41225561%218m2%213d29.757376999999998%214d-95.37738399999999&engine=google_maps&google_domain=google.com&hl=en&type=place
Tesla Destination Charger,"6750 Main St, Houston, TX 77030",29.7082204,-95.40422389999999,Electric vehicle charging station,https://serpapi.com/search.json?data=%214m5%213m4%211s0x8640c07202a1c4f1%3A0x1986cb8fbe745968%218m2%213d29.7082204%214d-95.40422389999999&engine=google_maps&google_domain=google.com&hl=en&type=place
Tesla Destination Charger,"5701 Main St, Houston, TX 77005",29.7243359,-95.38979169999999,Electric vehicle charging station,https://serpapi.com/search.json?data=%214m5%213m4%211s0x8640bf81c0df4227%3A0x5ff78d3bf88f4229%218m2%213d29.7243359%214d-95.38979169999999&engine=google_maps&google_domain=google.com&hl=en&type=place
Tesla Destination Charger,"20330 TX-249, Houston, TX 77070",29.990415499999997,-95.57222279999999,Electric vehicle charging station,https://serpapi.com/search.json?data=%214m5%213m4%211s0x8640d27b56fa392b%3A0xa67f928282359152%218m2%213d29.990415499999997%214d-95.57222279999999&engine=google_maps&google_domain=google.com&hl=en&type=place
Tesla Destination Charger,"9000 S Main St, Houston, TX 77025",29.688453,-95.419609,Electric vehicle charging station,https://serpapi.com/search.json?data=%214m5%213m4%211s0x8640c0236785e59d%3A0x5cc6c7193dc14233%218m2%213d29.688453%214d-95.419609&engine=google_maps&google_domain=google.com&hl=en&type=place
Tesla Destination Charger,"19103 I-45, Spring, TX 77388",30.044361199999997,-95.4311599,Electric vehicle charging station,https://serpapi.com/search.json?data=%214m5%213m4%211s0x8640cad460f561c7%3A0x674ce5236c3afbf3%218m2%213d30.044361199999997%214d-95.4311599&engine=google_maps&google_domain=google.com&hl=en&type=place
Tesla Destination Charger,"232 Bruenigstrasse Buerglen, Brünigstrasse 232, 6078 [no name], Switzerland",46.8134113,8.1754175,Electric vehicle charging station,https://serpapi.com/search.json?data=%214m5%213m4%211s0x478f928510805e5f%3A0x59774c27f5fed17c%218m2%213d46.8134113%214d8.1754175&engine=google_maps&google_domain=google.com&hl=en&type=place
Tesla Destination Charger,"Brünigstrasse 621, 3860 Meiringen, Switzerland",46.7573412,8.1348892,Electric vehicle charging station,https://serpapi.com/search.json?data=%214m5%213m4%211s0x478f91905e11e157%3A0x535db92f56f80c84%218m2%213d46.7573412%214d8.1348892&engine=google_maps&google_domain=google.com&hl=en&type=place
Tesla Destination Charger,"Wilerstrasse 35, 6062 Sarnen, Switzerland",46.888250899999996,8.232663,Electric vehicle charging station,https://serpapi.com/search.json?data=%214m5%213m4%211s0x478ff25d3acccc55%3A0xa9a180dd3b4a6a1d%218m2%213d46.888250899999996%214d8.232663&engine=google_maps&google_domain=google.com&hl=en&type=place
Tesla Destination Charger,"Brünigpasss 644, 3860 Bruenig, Switzerland",46.7575053,8.1373572,Electric vehicle charging station,https://serpapi.com/search.json?data=%214m5%213m4%211s0x478f9191bb4b9249%3A0x575a61a8fda6d874%218m2%213d46.7575053%214d8.1373572&engine=google_maps&google_domain=google.com&hl=en&type=place
Tesla Destination Charger,"Dorfstrasse 45, 6390 Engelberg, Switzerland",46.819925,8.401555,Electric vehicle charging station,https://serpapi.com/search.json?data=%214m5%213m4%211s0x47856072cdf81781%3A0xf11f25f55492fc8a%218m2%213d46.819925%214d8.401555&engine=google_maps&google_domain=google.com&hl=en&type=place
Tesla Destination Charger,"Sattel, 6083 Hasliberg, Switzerland",46.753823,8.167031399999999,Electric vehicle charging station,https://serpapi.com/search.json?data=%214m5%213m4%211s0x478f91e2721ebdcf%3A0x82feb959386146b6%218m2%213d46.753823%214d8.167031399999999&engine=google_maps&google_domain=google.com&hl=en&type=place
Tesla Destination Charger,"Schwandstrasse 91, 6390 Engelberg, Switzerland",46.8231227,8.3965493,Electric vehicle charging station,https://serpapi.com/search.json?data=%214m5%213m4%211s0x4785600c047c1bb5%3A0xfbece613ea2e889c%218m2%213d46.8231227%214d8.3965493&engine=google_maps&google_domain=google.com&hl=en&type=place
Tesla Destination Charger,"Schweizerhausstrasse 41, 6390 Engelberg, Switzerland",46.8183217,8.4247914,Electric vehicle charging station,https://serpapi.com/search.json?data=%214m5%213m4%211s0x47856087861f8b93%3A0x1678e31d83d3211%218m2%213d46.8183217%214d8.4247914&engine=google_maps&google_domain=google.com&hl=en&type=place
Tesla Destination Charger,"Bortweg, Niederbach Bort 44, 3818 Grindelwald, Switzerland",46.646361,8.052375,Electric vehicle charging station,https://serpapi.com/search.json?data=%214m5%213m4%211s0x478f9bdae25598f9%3A0x2c83b7fa0bdad18f%218m2%213d46.646361%214d8.052375&engine=google_maps&google_domain=google.com&hl=en&type=place
Tesla Destination Charger,"Dorfstrasse 53, 3818 Grindelwald, Switzerland",46.625015499999996,8.0299006,Electric vehicle charging station,https://serpapi.com/search.json?data=%214m5%213m4%211s0x478f9953edfadb79%3A0xf1ed67db0e3dbb44%218m2%213d46.625015499999996%214d8.0299006&engine=google_maps&google_domain=google.com&hl=en&type=place
EWO EV charging station,"Bahnhofstrasse 33, 6078 Lungern, Switzerland",46.7857123,8.1632924,Electric vehicle charging station,https://serpapi.com/search.json?data=%214m5%213m4%211s0x478f9212c3e27adb%3A0xc1e1f5213a089516%218m2%213d46.7857123%214d8.1632924&engine=google_maps&google_domain=google.com&hl=en&type=place
Tesla Destination Charger,"Swiss Alp Resort 1, 3818 Grindelwald, Switzerland",46.6254573,8.031524,Electric vehicle charging station,https://serpapi.com/search.json?data=%214m5%213m4%211s0x478f995404ec9201%3A0x58ea0e90b4e6696b%218m2%213d46.6254573%214d8.031524&engine=google_maps&google_domain=google.com&hl=en&type=place
Tesla Destination Charger,"Dorfstrasse 75, 3818 Grindelwald, Switzerland",46.624182,8.032743,Electric vehicle charging station,https://serpapi.com/search.json?data=%214m5%213m4%211s0x478f99544f40aaf3%3A0x8e22e225a1c3eed0%218m2%213d46.624182%214d8.032743&engine=google_maps&google_domain=google.com&hl=en&type=place
Tesla Destination Charger,"Dorfstrasse 168, 3818 Grindelwald, Switzerland",46.624049,8.041777,Electric vehicle charging station,https://serpapi.com/search.json?data=%214m5%213m4%211s0x478f9bfeb67d1c3d%3A0x1b1e5e510c09a45%218m2%213d46.624049%214d8.041777&engine=google_maps&google_domain=google.com&hl=en&type=place
Tesla Destination Charger,"Obere Gletscherstrasse 1, 3818 Grindelwald, Switzerland",46.6253855,8.0462616,Electric vehicle charging station,https://serpapi.com/search.json?data=%214m5%213m4%211s0x478f9bfa3058e647%3A0xdaa4e5d8cffa53f8%218m2%213d46.6253855%214d8.0462616&engine=google_maps&google_domain=google.com&hl=en&type=place
Tesla Destination Charger,"Kemmeriboden, 6197 Schangnau, Switzerland",46.8023221,7.9352355999999995,Electric vehicle charging station,https://serpapi.com/search.json?data=%214m5%213m4%211s0x478fbe8d31aa4673%3A0x1c633cf147b43fd1%218m2%213d46.8023221%214d7.9352355999999995&engine=google_maps&google_domain=google.com&hl=en&type=place
Tesla Destination Charger,"Dorfstrasse 136, 3818 Grindelwald, Switzerland",46.623214999999995,8.0384499,Electric vehicle charging station,https://serpapi.com/search.json?data=%214m5%213m4%211s0x478f9bfe522b4b89%3A0xc626fe03f571b574%218m2%213d46.623214999999995%214d8.0384499&engine=google_maps&google_domain=google.com&hl=en&type=place
Tesla Destination Charger,"Aspen 1, 3818 Grindelwald, Switzerland",46.619032999999995,8.0055029,Electric vehicle charging station,https://serpapi.com/search.json?data=%214m5%213m4%211s0x478f9ecbf5764d95%3A0xe8d72246d08ddc74%218m2%213d46.619032999999995%214d8.0055029&engine=google_maps&google_domain=google.com&hl=en&type=place
Tesla Destination Charger,"Dorfstrasse 93, 3818 Grindelwald, Switzerland",46.624519,8.034716,Electric vehicle charging station,https://serpapi.com/search.json?data=%214m5%213m4%211s0x478f9955c0e57b3f%3A0x4acca248bee0efdd%218m2%213d46.624519%214d8.034716&engine=google_maps&google_domain=google.com&hl=en&type=place
Tesla Destination Charger,"Endweg 55, 3818 Grindelwald, Switzerland",46.621486999999995,8.030284,Electric vehicle charging station,https://serpapi.com/search.json?data=%214m5%213m4%211s0x478f9954ae453ec9%3A0xa553e62d1264bfc9%218m2%213d46.621486999999995%214d8.030284&engine=google_maps&google_domain=google.com&hl=en&type=place
Tesla Destination Charger,"201 Motorsports Park Cir, Summit Point, WV 25446",39.241628,-77.979896,Electric vehicle charging station,https://serpapi.com/search.json?data=%214m5%213m4%211s0x89b5fc517c04fccd%3A0x8db2e6173653e8cd%218m2%213d39.241628%214d-77.979896&engine=google_maps&google_domain=google.com&hl=en&type=place
Tesla Destination Charger,"393 N Lawrence St, Charles Town, WV 25414",39.2917255,-77.8637389,Electric vehicle charging station,https://serpapi.com/search.json?data=%214m5%213m4%211s0x89b6011236654d29%3A0x21cecbed76f2b01c%218m2%213d39.2917255%214d-77.8637389&engine=google_maps&google_domain=google.com&hl=en&type=place
Tesla Destination Charger,"233 Lowe Dr, Shepherdstown, WV 25443",39.428419999999996,-77.817633,Electric vehicle charging station,https://serpapi.com/search.json?data=%214m5%213m4%211s0x89c9fbf3bc66af6d%3A0xe014e43c8841c340%218m2%213d39.428419999999996%214d-77.817633&engine=google_maps&google_domain=google.com&hl=en&type=place
Tesla Destination Charger,"164 Shepherd Grade Rd, Shepherdstown, WV 25443",39.43669,-77.804762,Electric vehicle charging station,https://serpapi.com/search.json?data=%214m5%213m4%211s0x89c9fb972380ad87%3A0xdaca2b11f6c2bc4%218m2%213d39.43669%214d-77.804762&engine=google_maps&google_domain=google.com&hl=en&type=place
Tesla Destination Charger,"4328 William L Wilson Fwy, Harpers Ferry, WV 25424",39.3172778,-77.7661054,Electric vehicle charging station,https://serpapi.com/search.json?data=%214m5%213m4%211s0x89b602bfb529f261%3A0x15c9abb0f1c4fc5c%218m2%213d39.3172778%214d-77.7661054&engine=google_maps&google_domain=google.com&hl=en&type=place
Tesla Destination Charger,"11500 Valley Rd, Berkeley Springs, WV 25411",39.471919,-78.307941,Electric vehicle charging station,https://serpapi.com/search.json?data=%214m5%213m4%211s0x89ca74a7705fe899%3A0x4c6f4483293092bd%218m2%213d39.471919%214d-78.307941&engine=google_maps&google_domain=google.com&hl=en&type=place
Tesla Destination Charger,"220 E Main St, Sharpsburg, MD 21782",39.45953,-77.74284999999999,Electric vehicle charging station,https://serpapi.com/search.json?data=%214m5%213m4%211s0x89c9e52b7c5da783%3A0x8c463babb00d6bfd%218m2%213d39.45953%214d-77.74284999999999&engine=google_maps&google_domain=google.com&hl=en&type=place
Tesla Destination Charger,"818 Cacapon Lodge Dr, Berkeley Springs, WV 25411",39.505528999999996,-78.30000799999999,Electric vehicle charging station,https://serpapi.com/search.json?data=%214m5%213m4%211s0x89ca732e8dc8f9a5%3A0x74c0f35b9485b03d%218m2%213d39.505528999999996%214d-78.30000799999999&engine=google_maps&google_domain=google.com&hl=en&type=place
Tesla Destination Charger,"4812 Porterstown Rd, Keedysville, MD 21756",39.445664,-77.70529499999999,Electric vehicle charging station,https://serpapi.com/search.json?data=%214m5%213m4%211s0x89c9e4fc005a408f%3A0x979bbb8f896c13c8%218m2%213d39.445664%214d-77.70529499999999&engine=google_maps&google_domain=google.com&hl=en&type=place
Tesla Destination Charger,"13630 Lord Fairfax Hwy, Boyce, VA 22620",39.0705248,-78.0938383,Electric vehicle charging station,https://serpapi.com/search.json?data=%214m5%213m4%211s0x89b5e7c609dda8a1%3A0x8e834c7dfa67c2de%218m2%213d39.0705248%214d-78.0938383&engine=google_maps&google_domain=google.com&hl=en&type=place
Tesla Destination Charger,"110 S Washington St, Berkeley Springs, WV 25411",39.62583,-78.22904299999999,Electric vehicle charging station,https://serpapi.com/search.json?data=%214m5%213m4%211s0x89ca138a48111021%3A0x55a9e62a2fc78379%218m2%213d39.62583%214d-78.22904299999999&engine=google_maps&google_domain=google.com&hl=en&type=place
Tesla Destination Charger,"38295 Fremont Overlook Ln, Purcellville, VA 20132",39.1795671,-77.6774215,Electric vehicle charging station,https://serpapi.com/search.json?data=%214m5%213m4%211s0x89b61a6ad9770761%3A0x8ff1ebff0e293a2d%218m2%213d39.1795671%214d-77.6774215&engine=google_maps&google_domain=google.com&hl=en&type=place
Tesla Destination Charger,"8150 Carpers Pike, Yellow Spring, WV 26865",39.182260899999996,-78.510871,Electric vehicle charging station,https://serpapi.com/search.json?data=%214m5%213m4%211s0x89b59a37148b33dd%3A0x74c7d031ef273d%218m2%213d39.182260899999996%214d-78.510871&engine=google_maps&google_domain=google.com&hl=en&type=place
Tesla Destination Charger,"10 Riverton Commons Dr, Front Royal, VA 22630",38.963926699999995,-78.188493,Electric vehicle charging station,https://serpapi.com/search.json?data=%214m5%213m4%211s0x89b5c40f4776d53f%3A0x952c748ccca6861b%218m2%213d38.963926699999995%214d-78.188493&engine=google_maps&google_domain=google.com&hl=en&type=place
Tesla Destination Charger,"500 N Pendleton St, Middleburg, VA 20137",38.974469,-77.7433777,Electric vehicle charging station,https://serpapi.com/search.json?data=%214m5%213m4%211s0x89b66d62c3d20fc5%3A0x43aa906fb6070a5d%218m2%213d38.974469%214d-77.7433777&engine=google_maps&google_domain=google.com&hl=en&type=place
Tesla Destination Charger,"726 E Market St, Leesburg, VA 20176",39.1061157,-77.54633539999999,Electric vehicle charging station,https://serpapi.com/search.json?data=%214m5%213m4%211s0x89b63d761ed018c5%3A0x6a4c63b3a7566f6f%218m2%213d39.1061157%214d-77.54633539999999&engine=google_maps&google_domain=google.com&hl=en&type=place
Tesla Destination Charger,"405 S Main St, Mercersburg, PA 17236",39.8232627,-77.9016408,Electric vehicle charging station,https://serpapi.com/search.json?data=%214m5%213m4%211s0x89c9886c42e66e2b%3A0x6ed4707edafcdc5c%218m2%213d39.8232627%214d-77.9016408&engine=google_maps&google_domain=google.com&hl=en&type=place
Tesla Destination Charger,"39060 John Mosby Hwy, Middleburg, VA 20117",38.9812175,-77.65824429999999,Electric vehicle charging station,https://serpapi.com/search.json?data=%214m5%213m4%211s0x89b66ca694217c61%3A0x686c02cccfcdb20d%218m2%213d38.9812175%214d-77.65824429999999&engine=google_maps&google_domain=google.com&hl=en&type=place
Tesla Destination Charger,"8369 W Main St, Marshall, VA 20115",38.864719,-77.857351,Electric vehicle charging station,https://serpapi.com/search.json?data=%214m5%213m4%211s0x89b67742571460df%3A0x7abefbe6d869fced%218m2%213d38.864719%214d-77.857351&engine=google_maps&google_domain=google.com&hl=en&type=place
Tesla Destination Charger,"6483 Main St, The Plains, VA 22682",38.861756199999995,-77.77424549999999,Electric vehicle charging station,https://serpapi.com/search.json?data=%214m5%213m4%211s0x89b670698bfbef21%3A0xc73e579de3249e2e%218m2%213d38.861756199999995%214d-77.77424549999999&engine=google_maps&google_domain=google.com&hl=en&type=place
Tesla Destination Charger,"Hostačov, 582 82 Golčův Jeníkov, Czechia",49.847975,15.492522999999998,Electric vehicle charging station,https://serpapi.com/search.json?data=%214m5%213m4%211s0x470c4e8854c957a5%3A0x3eac7d565ee80338%218m2%213d49.847975%214d15.492522999999998&engine=google_maps&google_domain=google.com&hl=en&type=place
Tesla Destination Charger,"13 Chotovice, 289 05 Žehuň, Czechia",50.140646999999994,15.326887,Electric vehicle charging station,https://serpapi.com/search.json?data=%214m5%213m4%211s0x470c3d6767f42413%3A0xe7f34beea0d7cc5c%218m2%213d50.140646999999994%214d15.326887&engine=google_maps&google_domain=google.com&hl=en&type=place
Tesla Destination Charger,"Molitorov, 281 61 Kouřim, Czechia",49.99697,14.958765099999999,Electric vehicle charging station,https://serpapi.com/search.json?data=%214m5%213m4%211s0x470c7259967d1d13%3A0x5c6b1f700b0009cf%218m2%213d49.99697%214d14.958765099999999&engine=google_maps&google_domain=google.com&hl=en&type=place
Tesla Destination Charger,"Pražská 10, 503 51 Chlumec nad Cidlinou, Czechia",50.157151,15.453617999999999,Electric vehicle charging station,https://serpapi.com/search.json?data=%214m5%213m4%211s0x470c24a67501a975%3A0xd86289db31316b4c%218m2%213d50.157151%214d15.453617999999999&engine=google_maps&google_domain=google.com&hl=en&type=place
Tesla Destination Charger,"Gočárova tř. 1754/48a, 500 02 Hradec Králové, Czechia",50.212258,15.812038,Electric vehicle charging station,https://serpapi.com/search.json?data=%214m5%213m4%211s0x470c2b22d62397b1%3A0x303b4823053d8af0%218m2%213d50.212258%214d15.812038&engine=google_maps&google_domain=google.com&hl=en&type=place
Tesla Destination Charger,"Horní Náves 15, 251 62 Louňovice, Czechia",49.981165,14.762464999999999,Electric vehicle charging station,https://serpapi.com/search.json?data=%214m5%213m4%211s0x470c76013a29308f%3A0xc2805c7064ac4f4c%218m2%213d49.981165%214d14.762464999999999&engine=google_maps&google_domain=google.com&hl=en&type=place
Tesla Supercharger,"396 01 Vystrkov, Czechia",49.521699399999996,15.3474255,Electric vehicle charging station,https://serpapi.com/search.json?data=%214m5%213m4%211s0x470cfc8e36027d53%3A0x6bc035dce0fc369d%218m2%213d49.521699399999996%214d15.3474255&engine=google_maps&google_domain=google.com&hl=en&type=place
Tesla Supercharger,"Nad Jezem 361, 252 42 Vestec, Czechia",49.989826199999996,14.490713999999999,Electric vehicle charging station,https://serpapi.com/search.json?data=%214m5%213m4%211s0x470b91b9967fd4b9%3A0x8455e58a628792b%218m2%213d49.989826199999996%214d14.490713999999999&engine=google_maps&google_domain=google.com&hl=en&type=place
IONITY Charging Station,"Dálnice D1, Smer Praha Nupaky 251 01 CZ, Czechia",49.984404,14.602628999999999,Electric vehicle charging station,https://serpapi.com/search.json?data=%214m5%213m4%211s0x470b8eecb2b3615d%3A0x2ff14f1b523bc006%218m2%213d49.984404%214d14.602628999999999&engine=google_maps&google_domain=google.com&hl=en&type=place
E.ON electric charging stations,"03419, 396 01 Vystrkov, Czechia",49.5217513,15.347480599999999,Electric vehicle charging station,https://serpapi.com/search.json?data=%214m5%213m4%211s0x470cfc8e49f64307%3A0x6df06c9a1be91166%218m2%213d49.5217513%214d15.347480599999999&engine=google_maps&google_domain=google.com&hl=en&type=place
VIRTA Charging Station,"Poděbradská, 530 09 Pardubice VII, Czechia",50.0572344,15.7519128,Electric vehicle charging station,https://serpapi.com/search.json?data=%214m5%213m4%211s0x470dccd49babf727%3A0x9fe58748b86870ce%218m2%213d50.0572344%214d15.7519128&engine=google_maps&google_domain=google.com&hl=en&type=place
VIRTA Charging Station,"Romana Havelky 1, 586 01 Jihlava, Czechia",49.407331,15.581354999999999,Electric vehicle charging station,https://serpapi.com/search.json?data=%214m5%213m4%211s0x470d1a5c8f2346bf%3A0xc0e55f3d6e71e5b9%218m2%213d49.407331%214d15.581354999999999&engine=google_maps&google_domain=google.com&hl=en&type=place
IONITY Charging Station,"4300 St. Valentin, Austria",48.196417499999995,14.5282738,Electric vehicle charging station,https://serpapi.com/search.json?data=%214m5%213m4%211s0x4773b7ccefa896a5%3A0x3fcd7deb9745370c%218m2%213d48.196417499999995%214d14.5282738&engine=google_maps&google_domain=google.com&hl=en&type=place
Tesla Destination Charger,"Sophienstraße 41, 99817 Eisenach, Germany",50.976701,10.320838,Electric vehicle charging station,https://serpapi.com/search.json?data=%214m5%213m4%211s0x47a49b80fb2750bf%3A0xbd77e8f6716bed8e%218m2%213d50.976701%214d10.320838&engine=google_maps&google_domain=google.com&hl=en&type=place
Tesla Destination Charger,"33, Felchtaer Str., 99974 Mühlhausen/Thüringen, Germany",51.2074821,10.4573261,Electric vehicle charging station,https://serpapi.com/search.json?data=%214m5%213m4%211s0x47a492afafdb2333%3A0x94f9edba499c376f%218m2%213d51.2074821%214d10.4573261&engine=google_maps&google_domain=google.com&hl=en&type=place
Virta Global Charging Station,"Am Marktrasen 1, 99819 Krauthausen, Germany",51.007131,10.263015,Electric vehicle charging station,https://serpapi.com/search.json?data=%214m5%213m4%211s0x47a4996f20e933a9%3A0x30ca8ac05e3272ab%218m2%213d51.007131%214d10.263015&engine=google_maps&google_domain=google.com&hl=en&type=place
Tesla Destination Charger,"99817 Eisenach, Germany",50.966820999999996,10.305874,Electric vehicle charging station,https://serpapi.com/search.json?data=%214m5%213m4%211s0x47a49c706af99693%3A0xf4c4a18545ef1108%218m2%213d50.966820999999996%214d10.305874&engine=google_maps&google_domain=google.com&hl=en&type=place
Tesla Destination Charger,"Am Berg 1, 37276 Meinhard, Germany",51.20361,10.106907,Electric vehicle charging station,https://serpapi.com/search.json?data=%214m5%213m4%211s0x47a4b920b3195721%3A0x30a6445570025f16%218m2%213d51.20361%214d10.106907&engine=google_maps&google_domain=google.com&hl=en&type=place
Tesla Destination Charger,"Hohenhaus 1, 37293 Herleshausen, Germany",51.041712999999994,10.080935,Electric vehicle charging station,https://serpapi.com/search.json?data=%214m5%213m4%211s0x47a4a379be0bb8e5%3A0x2c3ab3db41330502%218m2%213d51.041712999999994%214d10.080935&engine=google_maps&google_domain=google.com&hl=en&type=place
Tesla Destination Charger,"Kurhausstraße 12, 99894 Friedrichroda, Germany",50.8312824,10.5880067,Electric vehicle charging station,https://serpapi.com/search.json?data=%214m5%213m4%211s0x47a3804ee3e7138f%3A0x152160c7051fed14%218m2%213d50.8312824%214d10.5880067&engine=google_maps&google_domain=google.com&hl=en&type=place
Tesla Destination Charger,"An der Schwellenbeize 6a, 37327 Leinefelde-Worbis, Germany",51.3871294,10.3327882,Electric vehicle charging station,https://serpapi.com/search.json?data=%214m5%213m4%211s0x47a4e80dbfac40f3%3A0x5855445014fa3a%218m2%213d51.3871294%214d10.3327882&engine=google_maps&google_domain=google.com&hl=en&type=place
Tesla Destination Charger,"Auf dem Ahrenberg 5, 37242 Bad Sooden-Allendorf, Germany",51.281399,9.950102,Electric vehicle charging station,https://serpapi.com/search.json?data=%214m5%213m4%211s0x47a4c9eccd27fe31%3A0xe5eda5cb0a216a3a%218m2%213d51.281399%214d9.950102&engine=google_maps&google_domain=google.com&hl=en&type=place
Tesla Destination Charger,"98, Heinz-Meise-Straße, 36199 Rotenburg an der Fulda, Germany",51.005165999999996,9.733827,Electric vehicle charging station,https://serpapi.com/search.json?data=%214m5%213m4%211s0x47a4ab483dbf5517%3A0x48b6f9b85f837284%218m2%213d51.005165999999996%214d9.733827&engine=google_maps&google_domain=google.com&hl=en&type=place
Tesla Destination Charger,"Poststraße 20, 36199 Rotenburg an der Fulda, Germany",50.996887,9.734771,Electric vehicle charging station,https://serpapi.com/search.json?data=%214m5%213m4%211s0x47a4ab3a5cd95fa7%3A0xaa32b8f807f482ff%218m2%213d50.996887%214d9.734771&engine=google_maps&google_domain=google.com&hl=en&type=place
Tesla Destination Charger,"Berliner Str. 30, 37073 Göttingen, Germany",51.534690999999995,9.9269151,Electric vehicle charging station,https://serpapi.com/search.json?data=%214m5%213m4%211s0x47a4d4b9a91a6abf%3A0x5e990a211624ea72%218m2%213d51.534690999999995%214d9.9269151&engine=google_maps&google_domain=google.com&hl=en&type=place
Tesla Destination Charger,"Fjordvej 56, 5330 Munkebo, Denmark",55.456505,10.556839,Electric vehicle charging station,https://serpapi.com/search.json?data=%214m5%213m4%211s0x464d1937be5d8655%3A0xb649529bbda2aa8a%218m2%213d55.456505%214d10.556839&engine=google_maps&google_domain=google.com&hl=en&type=place
Tesla Destination Charger,"Hunderupgade 2, 5230 Odense, Denmark",55.3811146,10.3946496,Electric vehicle charging station,https://serpapi.com/search.json?data=%214m5%213m4%211s0x464d207316561489%3A0xb5d876fbdd81da93%218m2%213d55.3811146%214d10.3946496&engine=google_maps&google_domain=google.com&hl=en&type=place
Tesla Destination Charger,"Sanatorievej 26, 7140 Stouby, Denmark",55.684275,9.7603639,Electric vehicle charging station,https://serpapi.com/search.json?data=%214m5%213m4%211s0x464c8f0ad9b4ac59%3A0xacbe9d70205897ba%218m2%213d55.684275%214d9.7603639&engine=google_maps&google_domain=google.com&hl=en&type=place
Tesla Destination Charger,"Vestre Ringvej 96, 7000 Fredericia, Denmark",55.576118,9.727364999999999,Electric vehicle charging station,https://serpapi.com/search.json?data=%214m5%213m4%211s0x464c90ebdf582601%3A0x999dc83e075746e3%218m2%213d55.576118%214d9.727364999999999&engine=google_maps&google_domain=google.com&hl=en&type=place
Tesla Destination Charger,"Horsensvej 581, 7120 Vejle, Denmark",55.747895199999995,9.6419594,Electric vehicle charging station,https://serpapi.com/search.json?data=%214m5%213m4%211s0x464c86bb2f3246e3%3A0x2d728b45b8697d09%218m2%213d55.747895199999995%214d9.6419594&engine=google_maps&google_domain=google.com&hl=en&type=place
Tesla Supercharger,"Karensmindevej 3, 5500 Middelfart, Denmark",55.5112836,9.7647344,Electric vehicle charging station,https://serpapi.com/search.json?data=%214m5%213m4%211s0x464c968dbae2f277%3A0x406a92484c4429d1%218m2%213d55.5112836%214d9.7647344&engine=google_maps&google_domain=google.com&hl=en&type=place
IONITY Charging Station,"Snaremosevej 180, 7000 Fredericia, Denmark",55.536688999999996,9.7177619,Electric vehicle charging station,https://serpapi.com/search.json?data=%214m5%213m4%211s0x464c973a557bcde9%3A0x29bc60d1712d479%218m2%213d55.536688999999996%214d9.7177619&engine=google_maps&google_domain=google.com&hl=en&type=place
Clever Fast Charger,"Unnamed Road, 7100, 7100 Vejle, Denmark",55.723763899999994,9.5837484,Electric vehicle charging station,https://serpapi.com/search.json?data=%214m5%213m4%211s0x464c8324d338fe17%3A0xf483634485e43e8a%218m2%213d55.723763899999994%214d9.5837484&engine=google_maps&google_domain=google.com&hl=en&type=place
E. ON electric vehicle charging station (Quick Charger),"Esbjergmotorvejen 647A, 6000 Kolding, Denmark",55.511429299999996,9.3926167,Electric vehicle charging station,https://serpapi.com/search.json?data=%214m5%213m4%211s0x464b603d2ca6e1c3%3A0x75b02ccac289e7b1%218m2%213d55.511429299999996%214d9.3926167&engine=google_maps&google_domain=google.com&hl=en&type=place
Virta Global Charging Station,"Krogsgade 9, 8300 Odder, Denmark",55.88921,10.166057,Electric vehicle charging station,https://serpapi.com/search.json?data=%214m5%213m4%211s0x464c5c1690b9cd83%3A0xf3ffe4a90c872dec%218m2%213d55.88921%214d10.166057&engine=google_maps&google_domain=google.com&hl=en&type=place
IONITY High Power Charger,"Egevej 6, 6200 Aabenraa, Denmark",55.065131099999995,9.3662026,Electric vehicle charging station,https://serpapi.com/search.json?data=%214m5%213m4%211s0x47b3550017efd1ef%3A0x51e59c527278d35c%218m2%213d55.065131099999995%214d9.3662026&engine=google_maps&google_domain=google.com&hl=en&type=place
Tesla Destination Charger,"Mere boulevard 7, Pärnu, 80010 Pärnu maakond, Estonia",58.380604899999994,24.491125999999998,Electric vehicle charging station,https://serpapi.com/search.json?data=%214m5%213m4%211s0x46ecfd172a2bcfe3%3A0xe0033e6f18b456d0%218m2%213d58.380604899999994%214d24.491125999999998&engine=google_maps&google_domain=google.com&hl=en&type=place
VIRTA Charging Station,"Tallinn–Tartu–Võru–Luhamaa, Imavere, 72401 Järva maakond, Estonia",58.74579,25.768698,Electric vehicle charging station,https://serpapi.com/search.json?data=%214m5%213m4%211s0x46934cc670737515%3A0x5a924501b3c43664%218m2%213d58.74579%214d25.768698&engine=google_maps&google_domain=google.com&hl=en&type=place
Tesla Destination Charger,"Hirsalantie 215, 02420 Kirkkonummi, Finland",60.118454,24.523132999999998,Electric vehicle charging station,https://serpapi.com/search.json?data=%214m5%213m4%211s0x468d8c57ae917de3%3A0x731bea71c50b9f89%218m2%213d60.118454%214d24.523132999999998&engine=google_maps&google_domain=google.com&hl=en&type=place
Tesla Destination Charger,"Hietasaarenkuja 11, 00220 Helsinki, Finland",60.15643,24.92092,Electric vehicle charging station,https://serpapi.com/search.json?data=%214m5%213m4%211s0x46920bb32a417ca5%3A0x249cf1667f7cfc18%218m2%213d60.15643%214d24.92092&engine=google_maps&google_domain=google.com&hl=en&type=place
Tesla Destination Charger,"10, Katajaharjuntie 200, 00200 Helsinki, Finland",60.1659467,24.8571179,Electric vehicle charging station,https://serpapi.com/search.json?data=%214m5%213m4%211s0x46920a7a9fefba8b%3A0x783e9450c1e24988%218m2%213d60.1659467%214d24.8571179&engine=google_maps&google_domain=google.com&hl=en&type=place
Tesla Destination Charger,"Vattuniemen puistotie 1, 00210 Helsinki, Finland",60.151733,24.891245899999998,Electric vehicle charging station,https://serpapi.com/search.json?data=%214m5%213m4%211s0x46920a59e1423cd9%3A0x300057847876a9a3%218m2%213d60.151733%214d24.891245899999998&engine=google_maps&google_domain=google.com&hl=en&type=place
Tesla Destination Charger,"Lentoasemantie 1, 01530 Vantaa, Finland",60.316395,24.964059,Electric vehicle charging station,https://serpapi.com/search.json?data=%214m5%213m4%211s0x468df86f36130b25%3A0x1cca496045e85c24%218m2%213d60.316395%214d24.964059&engine=google_maps&google_domain=google.com&hl=en&type=place
Tesla Destination Charger,"Mukkulankatu 19, 15210 Lahti, Finland",61.005334999999995,25.6636661,Electric vehicle charging station,https://serpapi.com/search.json?data=%214m5%213m4%211s0x468e290a1c06acc1%3A0x4fbf6054eb0e9a01%218m2%213d61.005334999999995%214d25.6636661&engine=google_maps&google_domain=google.com&hl=en&type=place
Tesla Destination Charger,"12645 Pinecrest Pkwy, Pinecrest, FL 33156",25.653198999999997,-80.328879,Electric vehicle charging station,https://serpapi.com/search.json?data=%214m5%213m4%211s0x88d9c6f3b9b5e3fd%3A0x8c2ec66ba89da45c%218m2%213d25.653198999999997%214d-80.328879&engine=google_maps&google_domain=google.com&hl=en&type=place
Tesla Destination Charger Charging Station,"7250 NW 11th St, Miami, FL 33126",25.780694,-80.313715,Electric vehicle charging station,https://serpapi.com/search.json?data=%214m5%213m4%211s0x88d9b9a445249cdd%3A0x81e4740ca8e04b5c%218m2%213d25.780694%214d-80.313715&engine=google_maps&google_domain=google.com&hl=en&type=place
Tesla Destination Charger,"50 Alhambra Plaza, Coral Gables, FL 33134",25.752036999999998,-80.255731,Electric vehicle charging station,https://serpapi.com/search.json?data=%214m5%213m4%211s0x88d9b79867150a1d%3A0xd69f350ab78fffe3%218m2%213d25.752036999999998%214d-80.255731&engine=google_maps&google_domain=google.com&hl=en&type=place
EVgo Charging Station,"8888 SW 136th St, Miami, FL 33176",25.644620999999997,-80.3376502,Electric vehicle charging station,https://serpapi.com/search.json?data=%214m5%213m4%211s0x88d9c693f0cb50e7%3A0x78a73494cba87353%218m2%213d25.644620999999997%214d-80.3376502&engine=google_maps&google_domain=google.com&hl=en&type=place
Tesla Destination Charger,"3590 NW 74th Ave, Miami, FL 33122",25.8083116,-80.31939849999999,Electric vehicle charging station,https://serpapi.com/search.json?data=%214m5%213m4%211s0x88d9b981970a6db5%3A0xb901fe74938cf552%218m2%213d25.8083116%214d-80.31939849999999&engine=google_maps&google_domain=google.com&hl=en&type=place
SemaConnect Charging Station,"17945 SW 97th Ave, Palmetto Bay, FL 33157",25.6031099,-80.347235,Electric vehicle charging station,https://serpapi.com/search.json?data=%214m5%213m4%211s0x88d9c46b324d77b7%3A0xb4b82c80c1e866b%218m2%213d25.6031099%214d-80.347235&engine=google_maps&google_domain=google.com&hl=en&type=place
Tesla Destination Charger,"3525 NW 25th St, Miami, FL 33142",25.799499899999997,-80.253658,Electric vehicle charging station,https://serpapi.com/search.json?data=%214m5%213m4%211s0x88d9b736321509ed%3A0x73a90c9adf0a98b2%218m2%213d25.799499899999997%214d-80.253658&engine=google_maps&google_domain=google.com&hl=en&type=place
Tesla Destination Charger,"50 SW 12th St, Miami, FL 33130",25.762349,-80.19413899999999,Electric vehicle charging station,https://serpapi.com/search.json?data=%214m5%213m4%211s0x88d9b686a35fd8c7%3A0x2a1416e990aaefc3%218m2%213d25.762349%214d-80.19413899999999&engine=google_maps&google_domain=google.com&hl=en&type=place
Tesla Destination Charger,"3974 NW S River Dr, Miami, FL 33142",25.8069767,-80.2618404,Electric vehicle charging station,https://serpapi.com/search.json?data=%214m5%213m4%211s0x88d9b74ceaf23e3b%3A0xbc646f748d40cb97%218m2%213d25.8069767%214d-80.2618404&engine=google_maps&google_domain=google.com&hl=en&type=place
Tesla Destination Charger,"100 Chopin Plaza, Miami, FL 33131",25.772724,-80.185998,Electric vehicle charging station,https://serpapi.com/search.json?data=%214m5%213m4%211s0x88d9b4273fdb6d9b%3A0x7e53a6cf6f574810%218m2%213d25.772724%214d-80.185998&engine=google_maps&google_domain=google.com&hl=en&type=place
ChargePoint Charging Station,"12198 SW 117th Ave, Miami, FL 33186",25.655569699999997,-80.3839802,Electric vehicle charging station,https://serpapi.com/search.json?data=%214m5%213m4%211s0x88d9c13f1fffff3f%3A0xdce1d65a533e66ac%218m2%213d25.655569699999997%214d-80.3839802&engine=google_maps&google_domain=google.com&hl=en&type=place
SemaConnect Charging Station,"Miami, FL 33186",25.6395798,-80.420305,Electric vehicle charging station,https://serpapi.com/search.json?data=%214m5%213m4%211s0x88d9c185a3915fc9%3A0x15dce4997847d4bb%218m2%213d25.6395798%214d-80.420305&engine=google_maps&google_domain=google.com&hl=en&type=place
Tesla Destination Charger,"500 Brickell Key Dr, Miami, FL 33131",25.765076,-80.1851203,Electric vehicle charging station,https://serpapi.com/search.json?data=%214m5%213m4%211s0x88d9b428536bb051%3A0x52fce56cff387bfb%218m2%213d25.765076%214d-80.1851203&engine=google_maps&google_domain=google.com&hl=en&type=place
Tesla Destination Charger,"250 SE 3rd Ave, Miami, FL 33131",25.7711537,-80.189416,Electric vehicle charging station,https://serpapi.com/search.json?data=%214m5%213m4%211s0x88d9b69d0927255d%3A0x7ca4e17632d527b6%218m2%213d25.7711537%214d-80.189416&engine=google_maps&google_domain=google.com&hl=en&type=place
Tesla Destination Charger,"225 SE 2nd St, Miami, FL 33131",25.773348,-80.189673,Electric vehicle charging station,https://serpapi.com/search.json?data=%214m5%213m4%211s0x88d9b69dcf4628fd%3A0xc9c863dc137f33fb%218m2%213d25.773348%214d-80.189673&engine=google_maps&google_domain=google.com&hl=en&type=place
Tesla Destination Charger,"1109 Brickell Ave, Miami, FL 33131",25.762508,-80.191109,Electric vehicle charging station,https://serpapi.com/search.json?data=%214m5%213m4%211s0x88d9b681636cc8ef%3A0xc1fb0f5b52bd61c7%218m2%213d25.762508%214d-80.191109&engine=google_maps&google_domain=google.com&hl=en&type=place
Tesla Destination Charger,"3841 NE 2nd Ave, Miami, FL 33137",25.812531,-80.19109,Electric vehicle charging station,https://serpapi.com/search.json?data=%214m5%213m4%211s0x88d9b156e298d3c3%3A0xac204f17ee4a1bf0%218m2%213d25.812531%214d-80.19109&engine=google_maps&google_domain=google.com&hl=en&type=place
Tesla Destination Charger,"1717 N Bayshore Dr, Miami, FL 33132",25.791465,-80.18620899999999,Electric vehicle charging station,https://serpapi.com/search.json?data=%214m5%213m4%211s0x88d9b41d4a4059b5%3A0xd8a86182b4949378%218m2%213d25.791465%214d-80.18620899999999&engine=google_maps&google_domain=google.com&hl=en&type=place
Tesla Destination Charger,"1100 West Ave, Miami Beach, FL 33139",25.781937799999998,-80.1427626,Electric vehicle charging station,https://serpapi.com/search.json?data=%214m5%213m4%211s0x88d9b48a09109b0b%3A0x5323f24347aa84fd%218m2%213d25.781937799999998%214d-80.1427626&engine=google_maps&google_domain=google.com&hl=en&type=place
Tesla Destination Charger,"40 Island Ave, Miami Beach, FL 33139",25.7915673,-80.1490218,Electric vehicle charging station,https://serpapi.com/search.json?data=%214m5%213m4%211s0x88d9b47b7a0d2c5d%3A0x43d3f8238650a482%218m2%213d25.7915673%214d-80.1490218&engine=google_maps&google_domain=google.com&hl=en&type=place
Renault Charging Station,"Route de Guéret, 36400 La Châtre, France",46.564692,1.9815189999999998,Electric vehicle charging station,https://serpapi.com/search.json?data=%214m5%213m4%211s0x47fa4b9c8f8dbb91%3A0x1e41c0c7f9cc1456%218m2%213d46.564692%214d1.9815189999999998&engine=google_maps&google_domain=google.com&hl=en&type=place
Tesla Destination Charger,"4 Avenue de la Châtre, 36000 Châteauroux, France",46.8096883,1.7042332999999998,Electric vehicle charging station,https://serpapi.com/search.json?data=%214m5%213m4%211s0x47fba754dc4d6c03%3A0x1852b5a7fd15d42d%218m2%213d46.8096883%214d1.7042332999999998&engine=google_maps&google_domain=google.com&hl=en&type=place
Tesla Destination Charger,"215 Route de Bourges, 18200 Saint-Amand-Montrond, France",46.736633999999995,2.4886019999999998,Electric vehicle charging station,https://serpapi.com/search.json?data=%214m5%213m4%211s0x47fa7c8a47edcbe9%3A0x5e681133866d80c4%218m2%213d46.736633999999995%214d2.4886019999999998&engine=google_maps&google_domain=google.com&hl=en&type=place
Tesla Destination Charger,"60-62 Avenue Jean Jaurès, 18000 Bourges, France",47.090182,2.393528,Electric vehicle charging station,https://serpapi.com/search.json?data=%214m5%213m4%211s0x47fa95df8e5f8953%3A0xec1159b96417712b%218m2%213d47.090182%214d2.393528&engine=google_maps&google_domain=google.com&hl=en&type=place
Tesla Destination Charger,"La Poignardière, 36700 Châtillon-sur-Indre, France",46.989413899999995,1.207274,Electric vehicle charging station,https://serpapi.com/search.json?data=%214m5%213m4%211s0x47fc9b5cb21ecd8f%3A0xc68f0ace113d830b%218m2%213d46.989413899999995%214d1.207274&engine=google_maps&google_domain=google.com&hl=en&type=place
Tesla Destination Charger,"Route de Beauval, 41110 St Aignan, France",47.250291399999995,1.3601075999999999,Electric vehicle charging station,https://serpapi.com/search.json?data=%214m5%213m4%211s0x47fb59a92de486bf%3A0x8bcad33561ba6759%218m2%213d47.250291399999995%214d1.3601075999999999&engine=google_maps&google_domain=google.com&hl=en&type=place
Tesla Destination Charger,"2 Grande Rue, 18220 Morogues, France",47.240837899999995,2.598172,Electric vehicle charging station,https://serpapi.com/search.json?data=%214m5%213m4%211s0x47faa66a63b7eb97%3A0x2a259239dd2fdec1%218m2%213d47.240837899999995%214d2.598172&engine=google_maps&google_domain=google.com&hl=en&type=place
Tesla Destination Charger,"le pr, Route du Gué de la Pierre, 18380 Ivoy-le-Pré, France",47.353564,2.485665,Electric vehicle charging station,https://serpapi.com/search.json?data=%214m5%213m4%211s0x47fab219fe2879b3%3A0xa906b8f81096b1b%218m2%213d47.353564%214d2.485665&engine=google_maps&google_domain=google.com&hl=en&type=place
Tesla Supercharger,"Relais Saint Jacques, D920, 36130 Coings, France",46.863053,1.7160948,Electric vehicle charging station,https://serpapi.com/search.json?data=%214m5%213m4%211s0x47fb096576b407a7%3A0x73246a01abccd349%218m2%213d46.863053%214d1.7160948&engine=google_maps&google_domain=google.com&hl=en&type=place
Tesla Destination Charger,"4 Avenue Baudin, 87000 Limoges, France",45.826961999999995,1.2590268999999998,Electric vehicle charging station,https://serpapi.com/search.json?data=%214m5%213m4%211s0x47f934a5eaafc8ad%3A0x2bfef734379e1d88%218m2%213d45.826961999999995%214d1.2590268999999998&engine=google_maps&google_domain=google.com&hl=en&type=place
Tesla Destination Charger,"Rue du Château, 37150 Chenonceaux, France",47.3298348,1.0669902,Electric vehicle charging station,https://serpapi.com/search.json?data=%214m5%213m4%211s0x47fcb12b1660688f%3A0x7d1fb5f3ec9a7dd3%218m2%213d47.3298348%214d1.0669902&engine=google_maps&google_domain=google.com&hl=en&type=place
freshmile Charging Station,"112 Le Bourg, 18170 Maisonnais, France",46.6398,2.21549,Electric vehicle charging station,https://serpapi.com/search.json?data=%214m5%213m4%211s0x47fa433751551d51%3A0xab09e205b8ccc6bd%218m2%213d46.6398%214d2.21549&engine=google_maps&google_domain=google.com&hl=en&type=place
Renault Charging Station,"108 Avenue d'Occitanie, 36250 Saint-Maur, France",46.778225,1.6501599999999998,Electric vehicle charging station,https://serpapi.com/search.json?data=%214m5%213m4%211s0x47fba052749a22fb%3A0xf50349c3fb55cd70%218m2%213d46.778225%214d1.6501599999999998&engine=google_maps&google_domain=google.com&hl=en&type=place
freshmile Charging Station,"2 Rue des Rouettes, 18170 Le Chatelet, France",46.642329499999995,2.2834239,Electric vehicle charging station,https://serpapi.com/search.json?data=%214m5%213m4%211s0x47fa6805f70d6f4b%3A0x1e48ea11aaaa37b0%218m2%213d46.642329499999995%214d2.2834239&engine=google_maps&google_domain=google.com&hl=en&type=place
VIRTA Charging Station,"27 Rue de la Pomme, 36100 Issoudun, France",46.950844499999995,2.0142945,Electric vehicle charging station,https://serpapi.com/search.json?data=%214m5%213m4%211s0x47fafcdad51e7aed%3A0xc2af60e7395e0a14%218m2%213d46.950844499999995%214d2.0142945&engine=google_maps&google_domain=google.com&hl=en&type=place
IONITY GmbH Charging Station,"A20, 87160 Saint-Sulpice-les-Feuilles, France",46.31306,1.416919,Electric vehicle charging station,https://serpapi.com/search.json?data=%214m5%213m4%211s0x47fbfb271fa2ae27%3A0x9eaa351862173b61%218m2%213d46.31306%214d1.416919&engine=google_maps&google_domain=google.com&hl=en&type=place
Sodetrel Charging Station,"208 Avenue de Tours, 36250 Saint-Maur, France",46.8203847,1.6700895,Electric vehicle charging station,https://serpapi.com/search.json?data=%214m5%213m4%211s0x47fb0a7ba89eb1af%3A0xead07e7116427278%218m2%213d46.8203847%214d1.6700895&engine=google_maps&google_domain=google.com&hl=en&type=place
freshmile Charging Station,"1 Le Bourg, 18270 Reigny, France",46.5772,2.3516499,Electric vehicle charging station,https://serpapi.com/search.json?data=%214m5%213m4%211s0x47fa6ead324ec80f%3A0x93819552b8bc0438%218m2%213d46.5772%214d2.3516499&engine=google_maps&google_domain=google.com&hl=en&type=place
IONITY GmbH Charging Station,"A20, 87160 Saint-Sulpice-les-Feuilles, France",46.314093,1.420088,Electric vehicle charging station,https://serpapi.com/search.json?data=%214m5%213m4%211s0x47fbfb27dd59dbdd%3A0xcb137ad563a35973%218m2%213d46.314093%214d1.420088&engine=google_maps&google_domain=google.com&hl=en&type=place
IONITY High Power Charger,"Autoroute A10 Aire de service de Tours la Longue Vue, 37380 Monnaie, France",47.475131,0.7764335,Electric vehicle charging station,https://serpapi.com/search.json?data=%214m5%213m4%211s0x47e32d9e20653131%3A0xc5db5d2cbea9915%218m2%213d47.475131%214d0.7764335&engine=google_maps&google_domain=google.com&hl=en&type=place
Tesla Destination Charger,"A591, Bassenthwaite, Keswick CA12 4QG, United Kingdom",54.657235,-3.1876919999999997,Electric vehicle charging station,https://serpapi.com/search.json?data=%214m5%213m4%211s0x487cd97e765dd699%3A0xc1637aee9b339495%218m2%213d54.657235%214d-3.1876919999999997&engine=google_maps&google_domain=google.com&hl=en&type=place
Chargemaster Charging Station,"B5291, Keswick, CA12 4RE, United Kingdom",54.68132,-3.231696,Electric vehicle charging station,https://serpapi.com/search.json?data=%214m5%213m4%211s0x487cd9c156b6771f%3A0x615bd15e0969b729%218m2%213d54.68132%214d-3.231696&engine=google_maps&google_domain=google.com&hl=en&type=place
Tesla Destination Charger,"Whitehaven, CA28 6PJ, United Kingdom",54.57382,-3.573709,Electric vehicle charging station,https://serpapi.com/search.json?data=%214m5%213m4%211s0x48632de1f056a583%3A0xa15e5c0d8370138f%218m2%213d54.57382%214d-3.573709&engine=google_maps&google_domain=google.com&hl=en&type=place
GeniePoint Charging Station,"27a Main St, Keswick, CA12 5BL, United Kingdom",54.600513199999995,-3.1380412,Electric vehicle charging station,https://serpapi.com/search.json?data=%214m5%213m4%211s0x487cdb6342619a5b%3A0xed7b5c4910df55c9%218m2%213d54.600513199999995%214d-3.1380412&engine=google_maps&google_domain=google.com&hl=en&type=place
Tesla Destination Charger,"Another Place, [no name], Watermillock, Penrith CA11 0LP, United Kingdom",54.602940999999994,-2.848902,Electric vehicle charging station,https://serpapi.com/search.json?data=%214m5%213m4%211s0x487ce50bf9810eaf%3A0x3175bb0854a2ba15%218m2%213d54.602940999999994%214d-2.848902&engine=google_maps&google_domain=google.com&hl=en&type=place
Tesla Destination Charger,"20-34 Warwick Rd, Carlisle, CA1 1AB, United Kingdom",54.8925043,-2.9310307,Electric vehicle charging station,https://serpapi.com/search.json?data=%214m5%213m4%211s0x487d1a2f7efc364b%3A0xb1289bcf753c9461%218m2%213d54.8925043%214d-2.9310307&engine=google_maps&google_domain=google.com&hl=en&type=place
GeniePoint Charging Station,"Griffin St, Workington, CA14 3YJ, United Kingdom",54.646884799999995,-3.5508352,Electric vehicle charging station,https://serpapi.com/search.json?data=%214m5%213m4%211s0x48632b8a3e82dc6d%3A0x147caee627f94e19%218m2%213d54.646884799999995%214d-3.5508352&engine=google_maps&google_domain=google.com&hl=en&type=place
Tesla Destination Charger,"Lambley Bank, Scotby, Carlisle CA4 8BU, United Kingdom",54.887439,-2.874733,Electric vehicle charging station,https://serpapi.com/search.json?data=%214m5%213m4%211s0x487d1afc8c9c23b1%3A0xad522179b91e20ea%218m2%213d54.887439%214d-2.874733&engine=google_maps&google_domain=google.com&hl=en&type=place
Tesla Destination Charger,"The Langdale estate, Great Langdale, Ambleside LA22 9JD, United Kingdom",54.437158999999994,-3.0398139,Electric vehicle charging station,https://serpapi.com/search.json?data=%214m5%213m4%211s0x487cc04cf6316625%3A0x7e942ebd220fa669%218m2%213d54.437158999999994%214d-3.0398139&engine=google_maps&google_domain=google.com&hl=en&type=place
Tesla Destination Charger,"Bailey Ground Hotel, Drigg Rd, Seascale, CA20 1NP, United Kingdom",54.39432,-3.4837909999999996,Electric vehicle charging station,https://serpapi.com/search.json?data=%214m5%213m4%211s0x4863357a97600819%3A0x11bef5abd903f076%218m2%213d54.39432%214d-3.4837909999999996&engine=google_maps&google_domain=google.com&hl=en&type=place
Tesla Destination Charger,"Ambleside Rd, Kirkbride, Windermere LA23 1LR, United Kingdom",54.414629,-2.950827,Electric vehicle charging station,https://serpapi.com/search.json?data=%214m5%213m4%211s0x487cead94ad053e5%3A0xbb68ff82cf3dd0cf%218m2%213d54.414629%214d-2.950827&engine=google_maps&google_domain=google.com&hl=en&type=place
Pod Point Charging Station,"Daleside Garage, Rowrah Rd, Frizington CA26 3XJ, United Kingdom",54.554054099999995,-3.4560559,Electric vehicle charging station,https://serpapi.com/search.json?data=%214m5%213m4%211s0x487ccd539b789e6f%3A0x3f034fe3956373ca%218m2%213d54.554054099999995%214d-3.4560559&engine=google_maps&google_domain=google.com&hl=en&type=place
InstaVolt Charging Station,"Booths Supermarket, Tithebarn Street, Keswick CA12 5EA, United Kingdom",54.6018681,-3.1428974,Electric vehicle charging station,https://serpapi.com/search.json?data=%214m5%213m4%211s0x487cdb7ad5a73173%3A0x1cabd91a54ec9eb%218m2%213d54.6018681%214d-3.1428974&engine=google_maps&google_domain=google.com&hl=en&type=place
Tesla Destination Charger,"Gosforth, cumbria, CA20 1JA, United Kingdom",54.4174912,-3.4299044,Electric vehicle charging station,https://serpapi.com/search.json?data=%214m5%213m4%211s0x487ccacfe9dc6771%3A0xe23997b65444c912%218m2%213d54.4174912%214d-3.4299044&engine=google_maps&google_domain=google.com&hl=en&type=place
Tesla Destination Charger,"[no name], Eskdale, Holmrook CA19 1TD, United Kingdom",54.390547,-3.3396399999999997,Electric vehicle charging station,https://serpapi.com/search.json?data=%214m5%213m4%211s0x487cca07abfb40a3%3A0x4c858575978a2f2b%218m2%213d54.390547%214d-3.3396399999999997&engine=google_maps&google_domain=google.com&hl=en&type=place
GeniePoint Charging Station,"1 Flatt Walks, Whitehaven, CA28 7RJ, United Kingdom",54.545587999999995,-3.585531,Electric vehicle charging station,https://serpapi.com/search.json?data=%214m5%213m4%211s0x486331e5566b4d6d%3A0x8afb3a7fcc78c171%218m2%213d54.545587999999995%214d-3.585531&engine=google_maps&google_domain=google.com&hl=en&type=place
GeniePoint Charging Station,"116 George St, Whitehaven, CA28 7EZ, United Kingdom",54.550086699999994,-3.5868781,Electric vehicle charging station,https://serpapi.com/search.json?data=%214m5%213m4%211s0x486331e4bb971371%3A0x6c958ac67c95b294%218m2%213d54.550086699999994%214d-3.5868781&engine=google_maps&google_domain=google.com&hl=en&type=place
Ecotricity Electric Highway Pump,"Carlisle, CA4 0NT, United Kingdom",54.7977516,-2.8713341,Electric vehicle charging station,https://serpapi.com/search.json?data=%214m5%213m4%211s0x487d1cfe5930f8e5%3A0x35d1a5c91c9b1492%218m2%213d54.7977516%214d-2.8713341&engine=google_maps&google_domain=google.com&hl=en&type=place
Tesla Destination Charger,"3 Meadowfield, Gosforth, Seascale CA20 1JA, United Kingdom",54.4175269,-3.4308875,Electric vehicle charging station,https://serpapi.com/search.json?data=%214m5%213m4%211s0x487ccacfe9dc6771%3A0xa0242d543033adb3%218m2%213d54.4175269%214d-3.4308875&engine=google_maps&google_domain=google.com&hl=en&type=place
GeniePoint Charging Station,"22 Trevor St, Carlisle, CA1 2PD, United Kingdom",54.8846601,-2.9168013999999998,Electric vehicle charging station,https://serpapi.com/search.json?data=%214m5%213m4%211s0x487d1a34fe1d7409%3A0x5ba70be4250fac22%218m2%213d54.8846601%214d-2.9168013999999998&engine=google_maps&google_domain=google.com&hl=en&type=place
Tesla Destination Charger,"1695 Outlet Center Dr, Selma, NC 27576",35.517801299999995,-78.29540589999999,Electric vehicle charging station,https://serpapi.com/search.json?data=%214m5%213m4%211s0x89ac72aa8361b315%3A0x2e376eafac373587%218m2%213d35.517801299999995%214d-78.29540589999999&engine=google_maps&google_domain=google.com&hl=en&type=place
Tesla Destination Charger,"100 Water Pl Landing, Benson, NC 27504",35.374336299999996,-78.5412005,Electric vehicle charging station,https://serpapi.com/search.json?data=%214m5%213m4%211s0x89ac789f35023fa7%3A0x8350d558f4dddf1a%218m2%213d35.374336299999996%214d-78.5412005&engine=google_maps&google_domain=google.com&hl=en&type=place
Tesla Destination Charger,"2100 Hillsborough St, Raleigh, NC 27607",35.786772899999995,-78.6633109,Electric vehicle charging station,https://serpapi.com/search.json?data=%214m5%213m4%211s0x89acf58c12852cb1%3A0xce9684062e5f1dca%218m2%213d35.786772899999995%214d-78.6633109&engine=google_maps&google_domain=google.com&hl=en&type=place
Tesla supercharger,"1700 E Market St, Smithfield, NC 27577",35.504782299999995,-78.3257419,Electric vehicle charging station,https://serpapi.com/search.json?data=%214m5%213m4%211s0x89ac735d12519d8b%3A0x3c9d45bf1cc7b4ea%218m2%213d35.504782299999995%214d-78.3257419&engine=google_maps&google_domain=google.com&hl=en&type=place
Tesla Destination Charger,"301 S Academy St, Cary, NC 27511",35.7849875,-78.7804771,Electric vehicle charging station,https://serpapi.com/search.json?data=%214m5%213m4%211s0x89acf3a61116ed43%3A0x656b927ff4083614%218m2%213d35.7849875%214d-78.7804771&engine=google_maps&google_domain=google.com&hl=en&type=place
Tesla Destination Charger,"2102 W Cumberland St, Dunn, NC 28334",35.321249,-78.635358,Electric vehicle charging station,https://serpapi.com/search.json?data=%214m5%213m4%211s0x89ab81c79ef2e08b%3A0x30b89a2f0188faf7%218m2%213d35.321249%214d-78.635358&engine=google_maps&google_domain=google.com&hl=en&type=place
ChargePoint Charging Station,"Turner Dr, Smithfield, NC 27577",35.5160797,-78.3343166,Electric vehicle charging station,https://serpapi.com/search.json?data=%214m5%213m4%211s0x89ac7286b6450f83%3A0x6ea1dbf25c5badbc%218m2%213d35.5160797%214d-78.3343166&engine=google_maps&google_domain=google.com&hl=en&type=place
Tesla Destination Charger,"100 Woodland Pond Dr, Cary, NC 27513",35.8294717,-78.76476269999999,Electric vehicle charging station,https://serpapi.com/search.json?data=%214m5%213m4%211s0x89acf15c77854b4d%3A0xbf96ea8e51ccbcc1%218m2%213d35.8294717%214d-78.76476269999999&engine=google_maps&google_domain=google.com&hl=en&type=place
Tesla Destination Charger,"12050 Retail Dr, Wake Forest, NC 27587",35.9765978,-78.5429005,Electric vehicle charging station,https://serpapi.com/search.json?data=%214m5%213m4%211s0x89ac53de2f881f43%3A0x8329583cc385f7f9%218m2%213d35.9765978%214d-78.5429005&engine=google_maps&google_domain=google.com&hl=en&type=place
EVgo Charging Station,"AAA New Hope, 1480 N New Hope Rd, Raleigh, NC 27604",35.800194,-78.56222799999999,Electric vehicle charging station,https://serpapi.com/search.json?data=%214m5%213m4%211s0x89ac5c00e2175043%3A0xcf8994e04de4c4ac%218m2%213d35.800194%214d-78.56222799999999&engine=google_maps&google_domain=google.com&hl=en&type=place
Tesla Destination Charger,"11470 Club Dr, Chapel Hill, NC 27517",35.846380599999996,-79.0396233,Electric vehicle charging station,https://serpapi.com/search.json?data=%214m5%213m4%211s0x89acc1f54edb208d%3A0x93bef3f1d803c8f1%218m2%213d35.846380599999996%214d-79.0396233&engine=google_maps&google_domain=google.com&hl=en&type=place
Tesla Destination Charger,"204 N Buchanan Blvd, Durham, NC 27701",36.0038767,-78.9121227,Electric vehicle charging station,https://serpapi.com/search.json?data=%214m5%213m4%211s0x89ace4095e611061%3A0x1587faf45d7e0bb6%218m2%213d36.0038767%214d-78.9121227&engine=google_maps&google_domain=google.com&hl=en&type=place
ChargePoint Charging Station,"3630 Old Raleigh Rd, Cary, NC 27511",35.737891,-78.8110559,Electric vehicle charging station,https://serpapi.com/search.json?data=%214m5%213m4%211s0x89ac8d348c0f525f%3A0x67b5c62e5d7067ae%218m2%213d35.737891%214d-78.8110559&engine=google_maps&google_domain=google.com&hl=en&type=place
Tesla Destination Charger,"3600 Mt Moriah Rd, Durham, NC 27707",35.949498999999996,-78.995446,Electric vehicle charging station,https://serpapi.com/search.json?data=%214m5%213m4%211s0x89ace7c038e0728f%3A0x76f4b708bd1f1f39%218m2%213d35.949498999999996%214d-78.995446&engine=google_maps&google_domain=google.com&hl=en&type=place
Tesla Destination Charger,"1090 US Hwy 15 501 S, Chapel Hill, NC 27517",35.8816061,-79.0623348,Electric vehicle charging station,https://serpapi.com/search.json?data=%214m5%213m4%211s0x89acc24d6eb6e11f%3A0xa5f4f401bd6a3763%218m2%213d35.8816061%214d-79.0623348&engine=google_maps&google_domain=google.com&hl=en&type=place
Tesla Destination Charger,"106 Mason Rd, Durham, NC 27712",36.118198299999996,-78.90371859999999,Electric vehicle charging station,https://serpapi.com/search.json?data=%214m5%213m4%211s0x89ad1dbf1c6e2063%3A0x14d770d2b930e5d0%218m2%213d36.118198299999996%214d-78.90371859999999&engine=google_maps&google_domain=google.com&hl=en&type=place
Tesla Destination Charger,"311 W Franklin St, Chapel Hill, NC 27516",35.911096799999996,-79.0601228,Electric vehicle charging station,https://serpapi.com/search.json?data=%214m5%213m4%211s0x89acc2e1222fa7cf%3A0x5eda521d88b91c22%218m2%213d35.911096799999996%214d-79.0601228&engine=google_maps&google_domain=google.com&hl=en&type=place
Tesla Destination Charger,"211 Pittsboro St, Chapel Hill, NC 27516",35.909583,-79.05468599999999,Electric vehicle charging station,https://serpapi.com/search.json?data=%214m5%213m4%211s0x89acc2e66abc0b45%3A0x149f3affe8637229%218m2%213d35.909583%214d-79.05468599999999&engine=google_maps&google_domain=google.com&hl=en&type=place
Electrify America Charging Station,"1025 Outlet Center Dr, Smithfield, NC 27577",35.5081194,-78.3150386,Electric vehicle charging station,https://serpapi.com/search.json?data=%214m5%213m4%211s0x89ac72bd4307f7c1%3A0xc7d91be82e9d6108%218m2%213d35.5081194%214d-78.3150386&engine=google_maps&google_domain=google.com&hl=en&type=place
EVgo Charging Station,"Courtyard Marriott DCFC, 3908 Arrow Dr, Raleigh, NC 27612",35.835117,-78.673851,Electric vehicle charging station,https://serpapi.com/search.json?data=%214m5%213m4%211s0x89acf63dffc3b8b1%3A0x673eb040fddc6802%218m2%213d35.835117%214d-78.673851&engine=google_maps&google_domain=google.com&hl=en&type=place
Tesla Destination Charger,"Budaörs, Rubik Ernő utca 2, 2040, Hungary",47.45165,18.961052,Electric vehicle charging station,https://serpapi.com/search.json?data=%214m5%213m4%211s0x4741e0a03788dca7%3A0xfa7380c9073d281a%218m2%213d47.45165%214d18.961052&engine=google_maps&google_domain=google.com&hl=en&type=place
Tesla Destination Charger,"Zsámbék, 1 Drivingcamp ut, 2072, Hungary",47.517027399999996,18.7320156,Electric vehicle charging station,https://serpapi.com/search.json?data=%214m5%213m4%211s0x476a72e15e9b8483%3A0x4f3b0985fa9f7657%218m2%213d47.517027399999996%214d18.7320156&engine=google_maps&google_domain=google.com&hl=en&type=place
Tesla Destination Charger,"Visegrád, Panorama ut, 2, 2025 Hungary",47.793524999999995,18.9842939,Electric vehicle charging station,https://serpapi.com/search.json?data=%214m5%213m4%211s0x476a874b0248a537%3A0x163ffe120b705fa3%218m2%213d47.793524999999995%214d18.9842939&engine=google_maps&google_domain=google.com&hl=en&type=place
Tesla Destination Charger,"Budapest, Erzsébet tér, 1051, Hungary",47.497361,19.0523029,Electric vehicle charging station,https://serpapi.com/search.json?data=%214m5%213m4%211s0x4741dc404179cd27%3A0x9db4e79dd8ad135f%218m2%213d47.497361%214d19.0523029&engine=google_maps&google_domain=google.com&hl=en&type=place
IONITY Charging Station,"Kajászó, 2472, Hungary",47.307644599999996,18.7443076,Electric vehicle charging station,https://serpapi.com/search.json?data=%214m5%213m4%211s0x476a0749ae4242b7%3A0x11253c71c5cafb5d%218m2%213d47.307644599999996%214d18.7443076&engine=google_maps&google_domain=google.com&hl=en&type=place
Tesla Destination Charger,"Medina, Rákóczi út 21, 7057, Hungary",46.468087,18.645993,Electric vehicle charging station,https://serpapi.com/search.json?data=%214m5%213m4%211s0x47428b5b9738c6bf%3A0x1e50dd9b3712f451%218m2%213d46.468087%214d18.645993&engine=google_maps&google_domain=google.com&hl=en&type=place
Metro Charger,"Budaörs, Unnamed Road, 2040, Hungary",47.4579557,18.901406599999998,Electric vehicle charging station,https://serpapi.com/search.json?data=%214m5%213m4%211s0x4741e1f8231632ad%3A0x999aa6d31b66373b%218m2%213d47.4579557%214d18.901406599999998&engine=google_maps&google_domain=google.com&hl=en&type=place
Tesla Destination Charger,"Szeged, Maros u. 1, 6721, Hungary",46.256237999999996,20.156767,Electric vehicle charging station,https://serpapi.com/search.json?data=%214m5%213m4%211s0x47448813275196f5%3A0x5889bfe05fe1b913%218m2%213d46.256237999999996%214d20.156767&engine=google_maps&google_domain=google.com&hl=en&type=place
E-mobi Car Charger,"Budapest, Kubik u., 1037, Hungary",47.561477499999995,19.0221844,Electric vehicle charging station,https://serpapi.com/search.json?data=%214m5%213m4%211s0x4741d9e8bf16c27d%3A0x47047677c277563c%218m2%213d47.561477499999995%214d19.0221844&engine=google_maps&google_domain=google.com&hl=en&type=place
E.ON Drive Charging Station,"Budapest, Haraszti út 32b, 1239, Hungary",47.386071,19.109597,Electric vehicle charging station,https://serpapi.com/search.json?data=%214m5%213m4%211s0x4741e8f85e1480f7%3A0x733f0ac596d6931d%218m2%213d47.386071%214d19.109597&engine=google_maps&google_domain=google.com&hl=en&type=place
VIRTA Charging Station,"Budapest, Hofherr Albert u. 38, 1194, Hungary",47.438047999999995,19.146531,Electric vehicle charging station,https://serpapi.com/search.json?data=%214m5%213m4%211s0x4741c28c35cf4acb%3A0x72793c88afda30c%218m2%213d47.438047999999995%214d19.146531&engine=google_maps&google_domain=google.com&hl=en&type=place
E.ON Charging Station,"Szigetszentmiklós, Csepeli út 64, 2310, Hungary",47.369484,19.0475059,Electric vehicle charging station,https://serpapi.com/search.json?data=%214m5%213m4%211s0x4741e61d1abffe49%3A0xb5b341d1a1f5fd0d%218m2%213d47.369484%214d19.0475059&engine=google_maps&google_domain=google.com&hl=en&type=place
VIRTA Charging Station,"Budapest, Dévai u. 30, 1134, Hungary",47.520123999999996,19.061919,Electric vehicle charging station,https://serpapi.com/search.json?data=%214m5%213m4%211s0x4741dbf5ab49ab1f%3A0x6aeccca69660b39b%218m2%213d47.520123999999996%214d19.061919&engine=google_maps&google_domain=google.com&hl=en&type=place
Virta Charging Station,"Budapest, Hunyadi János út 19, 1116, Hungary",47.436825,19.03952,Electric vehicle charging station,https://serpapi.com/search.json?data=%214m5%213m4%211s0x4741e781c7b2568d%3A0xb5c424242fc6048b%218m2%213d47.436825%214d19.03952&engine=google_maps&google_domain=google.com&hl=en&type=place
Fast Charge Station - Budapest Airport,"Vecsés, 2220, Hungary",47.4313706,19.2638692,Electric vehicle charging station,https://serpapi.com/search.json?data=%214m5%213m4%211s0x4741c1b1faf165eb%3A0xb887d04bc4ebaa6e%218m2%213d47.4313706%214d19.2638692&engine=google_maps&google_domain=google.com&hl=en&type=place
Tesla Supercharger,"Fót, Fehérkő u. 1, 2151, Hungary",47.5819225,19.1624686,Electric vehicle charging station,https://serpapi.com/search.json?data=%214m5%213m4%211s0x4741d1012380c865%3A0x24e6778782b38153%218m2%213d47.5819225%214d19.1624686&engine=google_maps&google_domain=google.com&hl=en&type=place
e-Mobi töltő,"Budapest, Nagytétényi út, 1225, Hungary",47.392896,18.986331,Electric vehicle charging station,https://serpapi.com/search.json?data=%214m5%213m4%211s0x4741e771d4743b41%3A0x212766a70d9060b7%218m2%213d47.392896%214d18.986331&engine=google_maps&google_domain=google.com&hl=en&type=place
VIRTA Charging Station,"Budapest, Dráva u. 2, 1133, Hungary",47.524741,19.062176,Electric vehicle charging station,https://serpapi.com/search.json?data=%214m5%213m4%211s0x4741dbf3d6d9f87f%3A0x16a5e87a3093f116%218m2%213d47.524741%214d19.062176&engine=google_maps&google_domain=google.com&hl=en&type=place
Tesla Destination Charger,"676 Forest Ave, Staten Island, NY 10310",40.629216,-74.111537,Electric vehicle charging station,https://serpapi.com/search.json?data=%214m5%213m4%211s0x89c24e6e05540e4f%3A0xd056582ab0585732%218m2%213d40.629216%214d-74.111537&engine=google_maps&google_domain=google.com&hl=en&type=place
Tesla Destination Charger,"20 Beacon Way, Jersey City, NJ 07304",40.722203,-74.0642869,Electric vehicle charging station,https://serpapi.com/search.json?data=%214m5%213m4%211s0x89c250cde2682b6f%3A0xebed5fe6db8f9e66%218m2%213d40.722203%214d-74.0642869&engine=google_maps&google_domain=google.com&hl=en&type=place
Tesla Destination Charger,"435 N Ave W, Westfield, NJ 07090",40.649738,-74.349093,Electric vehicle charging station,https://serpapi.com/search.json?data=%214m5%213m4%211s0x89c3b1a845c77cdf%3A0xd834d4f47c963bd9%218m2%213d40.649738%214d-74.349093&engine=google_maps&google_domain=google.com&hl=en&type=place
Tesla Destination Charger,"198 Van Vorst St, Jersey City, NJ 07302",40.713865999999996,-74.041146,Electric vehicle charging station,https://serpapi.com/search.json?data=%214m5%213m4%211s0x89c250a5560b33ed%3A0x987991b3744350fc%218m2%213d40.713865999999996%214d-74.041146&engine=google_maps&google_domain=google.com&hl=en&type=place
Tesla Destination Charger,"1650 Hylan Blvd, Staten Island, NY 10305",40.588091,-74.089936,Electric vehicle charging station,https://serpapi.com/search.json?data=%214m5%213m4%211s0x89c24ec3415e9ac1%3A0xffc0469b0f6acd6f%218m2%213d40.588091%214d-74.089936&engine=google_maps&google_domain=google.com&hl=en&type=place
Tesla Destination Charger,"33 Park View Ave, Jersey City, NJ 07302",40.713397799999996,-74.04438999999999,Electric vehicle charging station,https://serpapi.com/search.json?data=%214m5%213m4%211s0x89c250ba8befa98f%3A0x25203fda7d947507%218m2%213d40.713397799999996%214d-74.04438999999999&engine=google_maps&google_domain=google.com&hl=en&type=place
Tesla Destination Charger,"39 Exchange Pl, New York, NY 10005",40.7059654,-74.0099951,Electric vehicle charging station,https://serpapi.com/search.json?data=%214m5%213m4%211s0x89c25a16f29dc173%3A0xcfca477b14017dba%218m2%213d40.7059654%214d-74.0099951&engine=google_maps&google_domain=google.com&hl=en&type=place
Tesla Destination Charger,"212 12th St, Brooklyn, NY 11215",40.668520199999996,-73.9904888,Electric vehicle charging station,https://serpapi.com/search.json?data=%214m5%213m4%211s0x89c25afb150fe781%3A0x56c5a7a8e2a585bc%218m2%213d40.668520199999996%214d-73.9904888&engine=google_maps&google_domain=google.com&hl=en&type=place
Tesla Destination Charger,"160 Morgan St, Jersey City, NJ 07302",40.720216099999995,-74.04076189999999,Electric vehicle charging station,https://serpapi.com/search.json?data=%214m5%213m4%211s0x89c250adbfef4aff%3A0x62f5158d1dbd43fe%218m2%213d40.720216099999995%214d-74.04076189999999&engine=google_maps&google_domain=google.com&hl=en&type=place
Tesla Destination Charger,"70 Little W St, New York, NY 10280",40.706629899999996,-74.016916,Electric vehicle charging station,https://serpapi.com/search.json?data=%214m5%213m4%211s0x89c25a11eae251a5%3A0xcdd13848a227d396%218m2%213d40.706629899999996%214d-74.016916&engine=google_maps&google_domain=google.com&hl=en&type=place
Tesla Destination Charger,"273 15th St, Jersey City, NJ 07310",40.732825,-74.045472,Electric vehicle charging station,https://serpapi.com/search.json?data=%214m5%213m4%211s0x89c2574f120d1081%3A0xf7fe584f7fc6c300%218m2%213d40.732825%214d-74.045472&engine=google_maps&google_domain=google.com&hl=en&type=place
Tesla Destination Charger,"75 Wall St, New York, NY 10005",40.7047534,-74.0084083,Electric vehicle charging station,https://serpapi.com/search.json?data=%214m5%213m4%211s0x89c25a1673cb5f3d%3A0xccda31080ab33e1c%218m2%213d40.7047534%214d-74.0084083&engine=google_maps&google_domain=google.com&hl=en&type=place
Tesla Destination Charger Charging Station,"110 Livingston St, Brooklyn, NY 11201",40.690987199999995,-73.99013049999999,Electric vehicle charging station,https://serpapi.com/search.json?data=%214m5%213m4%211s0x89c25a4eb92377eb%3A0x946640d2ffc567df%218m2%213d40.690987199999995%214d-73.99013049999999&engine=google_maps&google_domain=google.com&hl=en&type=place
Tesla Destination Charger,"129 Montgomery St, Jersey City, NJ 07302",40.716989,-74.040043,Electric vehicle charging station,https://serpapi.com/search.json?data=%214m5%213m4%211s0x89c250ae46593163%3A0xbc0a1eb6c3dc4256%218m2%213d40.716989%214d-74.040043&engine=google_maps&google_domain=google.com&hl=en&type=place
Tesla Destination Charger,"2 2nd St, Jersey City, NJ 07302",40.721455899999995,-74.0319576,Electric vehicle charging station,https://serpapi.com/search.json?data=%214m5%213m4%211s0x89c250aac280c49d%3A0x32c628ea26585804%218m2%213d40.721455899999995%214d-74.0319576&engine=google_maps&google_domain=google.com&hl=en&type=place
Tesla Destination Charger,"135 Greene St, Jersey City, NJ 07311",40.718398,-74.035327,Electric vehicle charging station,https://serpapi.com/search.json?data=%214m5%213m4%211s0x89c250abfb766413%3A0xe5d7e4beafca0649%218m2%213d40.718398%214d-74.035327&engine=google_maps&google_domain=google.com&hl=en&type=place
Tesla Destination Charger,"32 Desbrosses St, New York, NY 10013",40.723728,-74.0110346,Electric vehicle charging station,https://serpapi.com/search.json?data=%214m5%213m4%211s0x89c259f46ccaabeb%3A0x6f662f3215ab67a0%218m2%213d40.723728%214d-74.0110346&engine=google_maps&google_domain=google.com&hl=en&type=place
Tesla Destination Charger,"339 South End Ave, New York, NY 10280",40.7096406,-74.01582669999999,Electric vehicle charging station,https://serpapi.com/search.json?data=%214m5%213m4%211s0x89c25a1a90e781a1%3A0x27d3475936d06542%218m2%213d40.7096406%214d-74.01582669999999&engine=google_maps&google_domain=google.com&hl=en&type=place
Tesla Destination Charger,"14-26 S William St, New York, NY 10004",40.7046296,-74.01080019999999,Electric vehicle charging station,https://serpapi.com/search.json?data=%214m5%213m4%211s0x89c25a1420553bcb%3A0x532cc6b6bcca8a64%218m2%213d40.7046296%214d-74.01080019999999&engine=google_maps&google_domain=google.com&hl=en&type=place
Tesla Destination Charger,"669 Atlantic Ave, Brooklyn, NY 11217",40.6832871,-73.9735893,Electric vehicle charging station,https://serpapi.com/search.json?data=%214m5%213m4%211s0x89c25bafb7daa939%3A0xa4ad21ee15a6238d%218m2%213d40.6832871%214d-73.9735893&engine=google_maps&google_domain=google.com&hl=en&type=place
Tesla Destination Charger,"1285 US-69, Pittsburg, KS 66762",37.3431472,-94.70911919999999,Electric vehicle charging station,https://serpapi.com/search.json?data=%214m5%213m4%211s0x87c7dd6d7be0b38b%3A0x8057f915dc137b2d%218m2%213d37.3431472%214d-94.70911919999999&engine=google_maps&google_domain=google.com&hl=en&type=place
Tesla Destination Charger,"4522 E Skelly Dr, Tulsa, OK 74135",36.0915556,-95.9239114,Electric vehicle charging station,https://serpapi.com/search.json?data=%214m5%213m4%211s0x87b692ebc1e694ef%3A0x910e1eaacdd6c54a%218m2%213d36.0915556%214d-95.9239114&engine=google_maps&google_domain=google.com&hl=en&type=place
Tesla Destination Charger,"313 S Cincinnati Ave, Tulsa, OK 74103",36.1539685,-95.9881477,Electric vehicle charging station,https://serpapi.com/search.json?data=%214m5%213m4%211s0x87b6eb7ed6ce0a03%3A0xbd3f5192314291c%218m2%213d36.1539685%214d-95.9881477&engine=google_maps&google_domain=google.com&hl=en&type=place
Tesla Destination Charger,"118 S Mill St, Pryor, OK 74361",36.305120099999996,-95.3197039,Electric vehicle charging station,https://serpapi.com/search.json?data=%214m5%213m4%211s0x87b639f0340a2835%3A0x2d0b133609a5e63e%218m2%213d36.305120099999996%214d-95.3197039&engine=google_maps&google_domain=google.com&hl=en&type=place
Tesla Destination Charger,"57301 E Hwy #125, Monkey Island, OK 74331",36.560358,-94.838866,Electric vehicle charging station,https://serpapi.com/search.json?data=%214m5%213m4%211s0x87c833a42b8b1ab3%3A0x55f4296ef801d509%218m2%213d36.560358%214d-94.838866&engine=google_maps&google_domain=google.com&hl=en&type=place
Tesla Destination Charger,"17 W 7th St, Tulsa, OK 74119",36.14957,-95.990034,Electric vehicle charging station,https://serpapi.com/search.json?data=%214m5%213m4%211s0x87b6eb7bbce2019b%3A0x1dc5fc74f4ad767c%218m2%213d36.14957%214d-95.990034&engine=google_maps&google_domain=google.com&hl=en&type=place
